[
  {
    "airportName": "Goroka Airport",
    "cityName": "Goroka",
    "iata": "GKA",
    "latitude": -6.081689834590001,
    "longitude": 145.391998291
  },
  {
    "airportName": "Madang Airport",
    "cityName": "Madang",
    "iata": "MAG",
    "latitude": -5.20707988739,
    "longitude": 145.789001465
  },
  {
    "airportName": "Mount Hagen Kagamuga Airport",
    "cityName": "Mount Hagen",
    "iata": "HGU",
    "latitude": -5.826789855957031,
    "longitude": 144.29600524902344
  },
  {
    "airportName": "Nadzab Airport",
    "cityName": "Nadzab",
    "iata": "LAE",
    "latitude": -6.569803,
    "longitude": 146.725977
  },
  {
    "airportName": "Port Moresby Jacksons International Airport",
    "cityName": "Port Moresby",
    "iata": "POM",
    "latitude": -9.443380355834961,
    "longitude": 147.22000122070312
  },
  {
    "airportName": "Wewak International Airport",
    "cityName": "Wewak",
    "iata": "WWK",
    "latitude": -3.58383011818,
    "longitude": 143.669006348
  },
  {
    "airportName": "Narsarsuaq Airport",
    "cityName": "Narssarssuaq",
    "iata": "UAK",
    "latitude": 61.1604995728,
    "longitude": -45.4259986877
  },
  {
    "airportName": "Godthaab ",
    "cityName": "Godthaab",
    "iata": "GOH",
    "latitude": 64.19090271,
    "longitude": -51.6781005859
  },
  {
    "airportName": "Kangerlussuaq Airport",
    "cityName": "Sondrestrom",
    "iata": "SFJ",
    "latitude": 67.0122218992,
    "longitude": -50.7116031647
  },
  {
    "airportName": "Thule Air Base",
    "cityName": "Thule",
    "iata": "THU",
    "latitude": 76.5311965942,
    "longitude": -68.7032012939
  },
  {
    "airportName": "Akureyri Airport",
    "cityName": "Akureyri",
    "iata": "AEY",
    "latitude": 65.66000366210938,
    "longitude": -18.07270050048828
  },
  {
    "airportName": "Egilsstaðir Airport",
    "cityName": "Egilsstadir",
    "iata": "EGS",
    "latitude": 65.2833023071289,
    "longitude": -14.401399612426758
  },
  {
    "airportName": "Hornafjörður Airport",
    "cityName": "Hofn",
    "iata": "HFN",
    "latitude": 64.295601,
    "longitude": -15.2272
  },
  {
    "airportName": "Húsavík Airport",
    "cityName": "Husavik",
    "iata": "HZK",
    "latitude": 65.952301,
    "longitude": -17.426001
  },
  {
    "airportName": "Ísafjörður Airport",
    "cityName": "Isafjordur",
    "iata": "IFJ",
    "latitude": 66.05809783935547,
    "longitude": -23.135299682617188
  },
  {
    "airportName": "Keflavik International Airport",
    "cityName": "Keflavik",
    "iata": "KEF",
    "latitude": 63.985000610352,
    "longitude": -22.605600357056
  },
  {
    "airportName": "Patreksfjörður Airport",
    "cityName": "Patreksfjordur",
    "iata": "PFJ",
    "latitude": 65.555801,
    "longitude": -23.965
  },
  {
    "airportName": "Reykjavik Airport",
    "cityName": "Reykjavik",
    "iata": "RKV",
    "latitude": 64.1299972534,
    "longitude": -21.9405994415
  },
  {
    "airportName": "Siglufjörður Airport",
    "cityName": "Siglufjordur",
    "iata": "SIJ",
    "latitude": 66.133301,
    "longitude": -18.9167
  },
  {
    "airportName": "Vestmannaeyjar Airport",
    "cityName": "Vestmannaeyjar",
    "iata": "VEY",
    "latitude": 63.42430114746094,
    "longitude": -20.278900146484375
  },
  {
    "airportName": "Sault Ste Marie Airport",
    "cityName": "Sault Sainte Marie",
    "iata": "YAM",
    "latitude": 46.48500061035156,
    "longitude": -84.5093994140625
  },
  {
    "airportName": "Winnipeg ",
    "cityName": "Winnipeg",
    "iata": "\\N",
    "latitude": 50.0564002991,
    "longitude": -97.03250122070001
  },
  {
    "airportName": "Halifax ",
    "cityName": "Halifax",
    "iata": "\\N",
    "latitude": 44.639702,
    "longitude": -63.499401
  },
  {
    "airportName": "St. Anthony Airport",
    "cityName": "St. Anthony",
    "iata": "YAY",
    "latitude": 51.3918991089,
    "longitude": -56.083099365200006
  },
  {
    "airportName": "Tofino ",
    "cityName": "Tofino",
    "iata": "YAZ",
    "latitude": 49.079833,
    "longitude": -125.775583
  },
  {
    "airportName": "Kugaaruk Airport",
    "cityName": "Pelly Bay",
    "iata": "YBB",
    "latitude": 68.534401,
    "longitude": -89.808098
  },
  {
    "airportName": "Baie Comeau Airport",
    "cityName": "Baie Comeau",
    "iata": "YBC",
    "latitude": 49.13249969482422,
    "longitude": -68.20439910888672
  },
  {
    "airportName": "CFB Bagotville",
    "cityName": "Bagotville",
    "iata": "YBG",
    "latitude": 48.33060073852539,
    "longitude": -70.99639892578125
  },
  {
    "airportName": "Baker Lake Airport",
    "cityName": "Baker Lake",
    "iata": "YBK",
    "latitude": 64.29889678960001,
    "longitude": -96.077796936
  },
  {
    "airportName": "Campbell River Airport",
    "cityName": "Campbell River",
    "iata": "YBL",
    "latitude": 49.950801849365234,
    "longitude": -125.27100372314453
  },
  {
    "airportName": "Brandon Municipal Airport",
    "cityName": "Brandon",
    "iata": "YBR",
    "latitude": 49.91,
    "longitude": -99.951897
  },
  {
    "airportName": "Cambridge Bay Airport",
    "cityName": "Cambridge Bay",
    "iata": "YCB",
    "latitude": 69.1081008911,
    "longitude": -105.138000488
  },
  {
    "airportName": "Nanaimo Airport",
    "cityName": "Nanaimo",
    "iata": "YCD",
    "latitude": 49.054970224899996,
    "longitude": -123.869862556
  },
  {
    "airportName": "Castlegar",
    "cityName": "Castlegar",
    "iata": "YCG",
    "latitude": 49.2963981628,
    "longitude": -117.632003784
  },
  {
    "airportName": "Miramichi Airport",
    "cityName": "Chatham",
    "iata": "YCH",
    "latitude": 47.007801,
    "longitude": -65.449203
  },
  {
    "airportName": "Charlo Airport",
    "cityName": "Charlo",
    "iata": "YCL",
    "latitude": 47.990799,
    "longitude": -66.330299
  },
  {
    "airportName": "Kugluktuk Airport",
    "cityName": "Coppermine",
    "iata": "YCO",
    "latitude": 67.816704,
    "longitude": -115.143997
  },
  {
    "airportName": "Coronation Airport",
    "cityName": "Coronation",
    "iata": "YCT",
    "latitude": 52.0750007629,
    "longitude": -111.444999695
  },
  {
    "airportName": "Chilliwack Airport",
    "cityName": "Chilliwack",
    "iata": "YCW",
    "latitude": 49.1528015137,
    "longitude": -121.939002991
  },
  {
    "airportName": "Clyde River Airport",
    "cityName": "Clyde River",
    "iata": "YCY",
    "latitude": 70.4860992432,
    "longitude": -68.5167007446
  },
  {
    "airportName": "Coral Harbour Airport",
    "cityName": "Coral Harbour",
    "iata": "YZS",
    "latitude": 64.1932983398,
    "longitude": -83.3593978882
  },
  {
    "airportName": "Dawson City Airport",
    "cityName": "Dawson",
    "iata": "YDA",
    "latitude": 64.04309844970703,
    "longitude": -139.1280059814453
  },
  {
    "airportName": "Burwash Airport",
    "cityName": "Burwash",
    "iata": "YDB",
    "latitude": 61.37110137939453,
    "longitude": -139.04100036621094
  },
  {
    "airportName": "Princeton Airport",
    "cityName": "Princeton",
    "iata": "\\N",
    "latitude": 49.4681015015,
    "longitude": -120.511001587
  },
  {
    "airportName": "Deer Lake Airport",
    "cityName": "Deer Lake",
    "iata": "YDF",
    "latitude": 49.21080017089844,
    "longitude": -57.39139938354492
  },
  {
    "airportName": "Dease Lake Airport",
    "cityName": "Dease Lake",
    "iata": "YDL",
    "latitude": 58.4221992493,
    "longitude": -130.031997681
  },
  {
    "airportName": "Dauphin Barker Airport",
    "cityName": "Dauphin",
    "iata": "YDN",
    "latitude": 51.100799560546875,
    "longitude": -100.052001953125
  },
  {
    "airportName": "Dawson Creek Airport",
    "cityName": "Dawson Creek",
    "iata": "YDQ",
    "latitude": 55.7422981262207,
    "longitude": -120.18299865722656
  },
  {
    "airportName": "Edmonton International Airport",
    "cityName": "Edmonton",
    "iata": "YEG",
    "latitude": 53.309700012200004,
    "longitude": -113.580001831
  },
  {
    "airportName": "Arviat Airport",
    "cityName": "Eskimo Point",
    "iata": "YEK",
    "latitude": 61.0942001343,
    "longitude": -94.07080078119999
  },
  {
    "airportName": "Estevan Airport",
    "cityName": "Estevan",
    "iata": "YEN",
    "latitude": 49.2103004456,
    "longitude": -102.966003418
  },
  {
    "airportName": "Edson Airport",
    "cityName": "Edson",
    "iata": "YET",
    "latitude": 53.578899383499994,
    "longitude": -116.464996338
  },
  {
    "airportName": "Eureka Airport",
    "cityName": "Eureka",
    "iata": "YEU",
    "latitude": 79.9946975708,
    "longitude": -85.814201355
  },
  {
    "airportName": "Inuvik Mike Zubko Airport",
    "cityName": "Inuvik",
    "iata": "YEV",
    "latitude": 68.30419921880001,
    "longitude": -133.483001709
  },
  {
    "airportName": "Iqaluit Airport",
    "cityName": "Iqaluit",
    "iata": "YFB",
    "latitude": 63.756402,
    "longitude": -68.555801
  },
  {
    "airportName": "Fredericton Airport",
    "cityName": "Fredericton",
    "iata": "YFC",
    "latitude": 45.868900299072266,
    "longitude": -66.53720092773438
  },
  {
    "airportName": "Forestville Airport",
    "cityName": "Forestville",
    "iata": "YFE",
    "latitude": 48.74610137939453,
    "longitude": -69.09719848632812
  },
  {
    "airportName": "Flin Flon Airport",
    "cityName": "Flin Flon",
    "iata": "YFO",
    "latitude": 54.6781005859375,
    "longitude": -101.68199920654297
  },
  {
    "airportName": "Fort Resolution Airport",
    "cityName": "Fort Resolution",
    "iata": "YFR",
    "latitude": 61.1808013916,
    "longitude": -113.690002441
  },
  {
    "airportName": "Fort Simpson Airport",
    "cityName": "Fort Simpson",
    "iata": "YFS",
    "latitude": 61.76020050048828,
    "longitude": -121.23699951171875
  },
  {
    "airportName": "Kingston Norman Rogers Airport",
    "cityName": "Kingston",
    "iata": "YGK",
    "latitude": 44.22529983520508,
    "longitude": -76.5969009399414
  },
  {
    "airportName": "La Grande Rivière Airport",
    "cityName": "La Grande Riviere",
    "iata": "YGL",
    "latitude": 53.625301361083984,
    "longitude": -77.7042007446289
  },
  {
    "airportName": "Gaspé (Michel-Pouliot) Airport",
    "cityName": "Gaspe",
    "iata": "YGP",
    "latitude": 48.7752990723,
    "longitude": -64.4785995483
  },
  {
    "airportName": "Geraldton Greenstone Regional Airport",
    "cityName": "Geraldton",
    "iata": "YGQ",
    "latitude": 49.77830123901367,
    "longitude": -86.93939971923828
  },
  {
    "airportName": "Îles-de-la-Madeleine Airport",
    "cityName": "Iles De La Madeleine",
    "iata": "YGR",
    "latitude": 47.42470169067383,
    "longitude": -61.778099060058594
  },
  {
    "airportName": "Hudson Bay Airport",
    "cityName": "Hudson Bay",
    "iata": "YHB",
    "latitude": 52.8166999817,
    "longitude": -102.310997009
  },
  {
    "airportName": "Dryden Regional Airport",
    "cityName": "Dryden",
    "iata": "YHD",
    "latitude": 49.831699,
    "longitude": -92.744202
  },
  {
    "airportName": "Ulukhaktok Holman Airport",
    "cityName": "Holman Island",
    "iata": "YHI",
    "latitude": 70.76280212402344,
    "longitude": -117.80599975585938
  },
  {
    "airportName": "Gjoa Haven Airport",
    "cityName": "Gjoa Haven",
    "iata": "YHK",
    "latitude": 68.635597229,
    "longitude": -95.84970092770001
  },
  {
    "airportName": "John C. Munro Hamilton International Airport",
    "cityName": "Hamilton",
    "iata": "YHM",
    "latitude": 43.173599243199995,
    "longitude": -79.93499755859999
  },
  {
    "airportName": "Montréal ",
    "cityName": "Montreal",
    "iata": "YHU",
    "latitude": 45.5175018311,
    "longitude": -73.4169006348
  },
  {
    "airportName": "Hay River ",
    "cityName": "Hay River",
    "iata": "YHY",
    "latitude": 60.8396987915,
    "longitude": -115.782997131
  },
  {
    "airportName": "Halifax ",
    "cityName": "Halifax",
    "iata": "YHZ",
    "latitude": 44.8807983398,
    "longitude": -63.5085983276
  },
  {
    "airportName": "Atikokan Municipal Airport",
    "cityName": "Atikokan",
    "iata": "YIB",
    "latitude": 48.7738990784,
    "longitude": -91.6386032104
  },
  {
    "airportName": "Pond Inlet Airport",
    "cityName": "Pond Inlet",
    "iata": "YIO",
    "latitude": 72.6832962036,
    "longitude": -77.9666976929
  },
  {
    "airportName": "St Jean Airport",
    "cityName": "St. Jean",
    "iata": "YJN",
    "latitude": 45.29439926147461,
    "longitude": -73.28109741210938
  },
  {
    "airportName": "Stephenville Airport",
    "cityName": "Stephenville",
    "iata": "YJT",
    "latitude": 48.5442008972168,
    "longitude": -58.54999923706055
  },
  {
    "airportName": "Kamloops Airport",
    "cityName": "Kamloops",
    "iata": "YKA",
    "latitude": 50.7022018433,
    "longitude": -120.444000244
  },
  {
    "airportName": "Waterloo Airport",
    "cityName": "Waterloo",
    "iata": "YKF",
    "latitude": 43.460800170899994,
    "longitude": -80.3786010742
  },
  {
    "airportName": "Schefferville Airport",
    "cityName": "Schefferville",
    "iata": "YKL",
    "latitude": 54.805301666259766,
    "longitude": -66.8052978515625
  },
  {
    "airportName": "Kindersley Airport",
    "cityName": "Kindersley",
    "iata": "YKY",
    "latitude": 51.5175018311,
    "longitude": -109.180999756
  },
  {
    "airportName": "Buttonville Municipal Airport",
    "cityName": "Toronto",
    "iata": "YKZ",
    "latitude": 43.86220169067383,
    "longitude": -79.37000274658203
  },
  {
    "airportName": "Chapleau Airport",
    "cityName": "Chapleau",
    "iata": "YLD",
    "latitude": 47.81999969482422,
    "longitude": -83.3467025756836
  },
  {
    "airportName": "Meadow Lake Airport",
    "cityName": "Meadow Lake",
    "iata": "YLJ",
    "latitude": 54.125301361083984,
    "longitude": -108.52300262451172
  },
  {
    "airportName": "Lloydminster Airport",
    "cityName": "Lloydminster",
    "iata": "YLL",
    "latitude": 53.309200286865234,
    "longitude": -110.072998046875
  },
  {
    "airportName": "Alert Airport",
    "cityName": "Alert",
    "iata": "YLT",
    "latitude": 82.51779937740001,
    "longitude": -62.2806015015
  },
  {
    "airportName": "Kelowna International Airport",
    "cityName": "Kelowna",
    "iata": "YLW",
    "latitude": 49.9561004639,
    "longitude": -119.377998352
  },
  {
    "airportName": "Mayo Airport",
    "cityName": "Mayo",
    "iata": "YMA",
    "latitude": 63.61640167236328,
    "longitude": -135.8679962158203
  },
  {
    "airportName": "Moose Jaw Air Vice Marshal C. M. McEwen Airport",
    "cityName": "Moose Jaw",
    "iata": "YMJ",
    "latitude": 50.330299377441406,
    "longitude": -105.55899810791016
  },
  {
    "airportName": "Fort McMurray Airport",
    "cityName": "Fort Mcmurray",
    "iata": "YMM",
    "latitude": 56.653301239,
    "longitude": -111.222000122
  },
  {
    "airportName": "Moosonee Airport",
    "cityName": "Moosonee",
    "iata": "YMO",
    "latitude": 51.291099548339844,
    "longitude": -80.60780334472656
  },
  {
    "airportName": "Maniwaki Airport",
    "cityName": "Maniwaki",
    "iata": "YMW",
    "latitude": 46.2728004456,
    "longitude": -75.9906005859
  },
  {
    "airportName": "Montreal International (Mirabel) Airport",
    "cityName": "Montreal",
    "iata": "YMX",
    "latitude": 45.679501,
    "longitude": -74.038696
  },
  {
    "airportName": "Natashquan Airport",
    "cityName": "Natashquan",
    "iata": "YNA",
    "latitude": 50.189998626708984,
    "longitude": -61.78919982910156
  },
  {
    "airportName": "Ottawa ",
    "cityName": "Gatineau",
    "iata": "YND",
    "latitude": 45.521701812699995,
    "longitude": -75.5635986328
  },
  {
    "airportName": "Matagami Airport",
    "cityName": "Matagami",
    "iata": "YNM",
    "latitude": 49.76169967651367,
    "longitude": -77.80280303955078
  },
  {
    "airportName": "Old Crow Airport",
    "cityName": "Old Crow",
    "iata": "YOC",
    "latitude": 67.57060241699219,
    "longitude": -139.83900451660156
  },
  {
    "airportName": "CFB Cold Lake",
    "cityName": "Cold Lake",
    "iata": "YOD",
    "latitude": 54.404998779296875,
    "longitude": -110.27899932861328
  },
  {
    "airportName": "High Level Airport",
    "cityName": "High Level",
    "iata": "YOJ",
    "latitude": 58.62139892578125,
    "longitude": -117.16500091552734
  },
  {
    "airportName": "Ottawa Macdonald-Cartier International Airport",
    "cityName": "Ottawa",
    "iata": "YOW",
    "latitude": 45.3224983215332,
    "longitude": -75.66919708251953
  },
  {
    "airportName": "Prince Albert Glass Field",
    "cityName": "Prince Albert",
    "iata": "YPA",
    "latitude": 53.214199066199996,
    "longitude": -105.672996521
  },
  {
    "airportName": "Peace River Airport",
    "cityName": "Peace River",
    "iata": "YPE",
    "latitude": 56.226898,
    "longitude": -117.446999
  },
  {
    "airportName": "Southport Airport",
    "cityName": "Portage-la-prairie",
    "iata": "YPG",
    "latitude": 49.903099,
    "longitude": -98.273817
  },
  {
    "airportName": "Pitt Meadows Airport",
    "cityName": "Pitt Meadows",
    "iata": "\\N",
    "latitude": 49.21609878540039,
    "longitude": -122.70999908447266
  },
  {
    "airportName": "Pickle Lake Airport",
    "cityName": "Pickle Lake",
    "iata": "YPL",
    "latitude": 51.4463996887207,
    "longitude": -90.21420288085938
  },
  {
    "airportName": "Port Menier Airport",
    "cityName": "Port Menier",
    "iata": "YPN",
    "latitude": 49.83639907836914,
    "longitude": -64.2885971069336
  },
  {
    "airportName": "Peterborough Airport",
    "cityName": "Peterborough",
    "iata": "YPQ",
    "latitude": 44.22999954223633,
    "longitude": -78.36329650878906
  },
  {
    "airportName": "Prince Rupert Airport",
    "cityName": "Prince Pupert",
    "iata": "YPR",
    "latitude": 54.286098480199996,
    "longitude": -130.445007324
  },
  {
    "airportName": "Fort Chipewyan Airport",
    "cityName": "Fort Chipewyan",
    "iata": "YPY",
    "latitude": 58.7672004699707,
    "longitude": -111.11699676513672
  },
  {
    "airportName": "Muskoka Airport",
    "cityName": "Muskoka",
    "iata": "YQA",
    "latitude": 44.974700927734375,
    "longitude": -79.30329895019531
  },
  {
    "airportName": "Quebec Jean Lesage International Airport",
    "cityName": "Quebec",
    "iata": "YQB",
    "latitude": 46.7911,
    "longitude": -71.393303
  },
  {
    "airportName": "Red Deer Regional Airport",
    "cityName": "Red Deer Industrial",
    "iata": "YQF",
    "latitude": 52.18220138549805,
    "longitude": -113.89399719238281
  },
  {
    "airportName": "Windsor Airport",
    "cityName": "Windsor",
    "iata": "YQG",
    "latitude": 42.27560043334961,
    "longitude": -82.95559692382812
  },
  {
    "airportName": "Watson Lake Airport",
    "cityName": "Watson Lake",
    "iata": "YQH",
    "latitude": 60.11640167236328,
    "longitude": -128.82200622558594
  },
  {
    "airportName": "Kenora Airport",
    "cityName": "Kenora",
    "iata": "YQK",
    "latitude": 49.788299560546875,
    "longitude": -94.36309814453125
  },
  {
    "airportName": "Lethbridge County Airport",
    "cityName": "Lethbridge",
    "iata": "YQL",
    "latitude": 49.6302986145,
    "longitude": -112.800003052
  },
  {
    "airportName": "Greater Moncton International Airport",
    "cityName": "Moncton",
    "iata": "YQM",
    "latitude": 46.11220169067383,
    "longitude": -64.67859649658203
  },
  {
    "airportName": "Comox Airport",
    "cityName": "Comox",
    "iata": "YQQ",
    "latitude": 49.71080017089844,
    "longitude": -124.88700103759766
  },
  {
    "airportName": "Regina International Airport",
    "cityName": "Regina",
    "iata": "YQR",
    "latitude": 50.43190002441406,
    "longitude": -104.66600036621094
  },
  {
    "airportName": "Thunder Bay Airport",
    "cityName": "Thunder Bay",
    "iata": "YQT",
    "latitude": 48.37189865112305,
    "longitude": -89.32389831542969
  },
  {
    "airportName": "Grande Prairie Airport",
    "cityName": "Grande Prairie",
    "iata": "YQU",
    "latitude": 55.1796989441,
    "longitude": -118.885002136
  },
  {
    "airportName": "Yorkton Municipal Airport",
    "cityName": "Yorkton",
    "iata": "YQV",
    "latitude": 51.26470184326172,
    "longitude": -102.46199798583984
  },
  {
    "airportName": "North Battleford Airport",
    "cityName": "North Battleford",
    "iata": "YQW",
    "latitude": 52.76919937133789,
    "longitude": -108.24400329589844
  },
  {
    "airportName": "Gander International Airport",
    "cityName": "Gander",
    "iata": "YQX",
    "latitude": 48.9369010925293,
    "longitude": -54.56809997558594
  },
  {
    "airportName": "Sydney ",
    "cityName": "Sydney",
    "iata": "YQY",
    "latitude": 46.1614,
    "longitude": -60.047798
  },
  {
    "airportName": "Quesnel Airport",
    "cityName": "Quesnel",
    "iata": "YQZ",
    "latitude": 53.026100158691406,
    "longitude": -122.51000213623047
  },
  {
    "airportName": "Resolute Bay Airport",
    "cityName": "Resolute",
    "iata": "YRB",
    "latitude": 74.7169036865,
    "longitude": -94.9693984985
  },
  {
    "airportName": "Rivière-du-Loup Airport",
    "cityName": "Riviere Du Loup",
    "iata": "YRI",
    "latitude": 47.764400482177734,
    "longitude": -69.58470153808594
  },
  {
    "airportName": "Roberval Airport",
    "cityName": "Roberval",
    "iata": "YRJ",
    "latitude": 48.52000045776367,
    "longitude": -72.2656021118164
  },
  {
    "airportName": "Rocky Mountain House Airport",
    "cityName": "Rocky Mountain House",
    "iata": "YRM",
    "latitude": 52.4296989441,
    "longitude": -114.903999329
  },
  {
    "airportName": "Rankin Inlet Airport",
    "cityName": "Rankin Inlet",
    "iata": "YRT",
    "latitude": 62.8114013672,
    "longitude": -92.1157989502
  },
  {
    "airportName": "Sudbury Airport",
    "cityName": "Sudbury",
    "iata": "YSB",
    "latitude": 46.625,
    "longitude": -80.79889678955078
  },
  {
    "airportName": "Sherbrooke Airport",
    "cityName": "Sherbrooke",
    "iata": "YSC",
    "latitude": 45.4385986328125,
    "longitude": -71.69139862060547
  },
  {
    "airportName": "Saint John Airport",
    "cityName": "St. John",
    "iata": "YSJ",
    "latitude": 45.31610107421875,
    "longitude": -65.89029693603516
  },
  {
    "airportName": "Fort Smith Airport",
    "cityName": "Fort Smith",
    "iata": "YSM",
    "latitude": 60.020301818847656,
    "longitude": -111.96199798583984
  },
  {
    "airportName": "Nanisivik Airport",
    "cityName": "Nanisivik",
    "iata": "YSR",
    "latitude": 72.982201,
    "longitude": -84.613602
  },
  {
    "airportName": "Summerside Airport",
    "cityName": "Summerside",
    "iata": "YSU",
    "latitude": 46.44060134887695,
    "longitude": -63.83359909057617
  },
  {
    "airportName": "Sachs Harbour (David Nasogaluak Jr. Saaryuaq) Airport",
    "cityName": "Sachs Harbour",
    "iata": "YSY",
    "latitude": 71.9938964844,
    "longitude": -125.242996216
  },
  {
    "airportName": "Cape Dorset Airport",
    "cityName": "Cape Dorset",
    "iata": "YTE",
    "latitude": 64.2300033569,
    "longitude": -76.5267028809
  },
  {
    "airportName": "Thompson Airport",
    "cityName": "Thompson",
    "iata": "YTH",
    "latitude": 55.80110168457031,
    "longitude": -97.86419677734375
  },
  {
    "airportName": "CFB Trenton",
    "cityName": "Trenton",
    "iata": "YTR",
    "latitude": 44.118900299072266,
    "longitude": -77.5280990600586
  },
  {
    "airportName": "Timmins",
    "cityName": "Timmins",
    "iata": "YTS",
    "latitude": 48.569698333699996,
    "longitude": -81.376701355
  },
  {
    "airportName": "Billy Bishop Toronto City Centre Airport",
    "cityName": "Toronto",
    "iata": "YTZ",
    "latitude": 43.627499,
    "longitude": -79.396202
  },
  {
    "airportName": "Tuktoyaktuk Airport",
    "cityName": "Tuktoyaktuk",
    "iata": "YUB",
    "latitude": 69.43329620361328,
    "longitude": -133.0260009765625
  },
  {
    "airportName": "Montreal ",
    "cityName": "Montreal",
    "iata": "YUL",
    "latitude": 45.4706001282,
    "longitude": -73.7407989502
  },
  {
    "airportName": "Repulse Bay Airport",
    "cityName": "Repulse Bay",
    "iata": "YUT",
    "latitude": 66.5214004517,
    "longitude": -86.22470092770001
  },
  {
    "airportName": "Hall Beach Airport",
    "cityName": "Hall Beach",
    "iata": "YUX",
    "latitude": 68.77610015869999,
    "longitude": -81.2425
  },
  {
    "airportName": "Rouyn Noranda Airport",
    "cityName": "Rouyn",
    "iata": "YUY",
    "latitude": 48.20610046386719,
    "longitude": -78.83560180664062
  },
  {
    "airportName": "La Ronge Airport",
    "cityName": "La Ronge",
    "iata": "YVC",
    "latitude": 55.151401519800004,
    "longitude": -105.262001038
  },
  {
    "airportName": "Vermilion Airport",
    "cityName": "Vermillion",
    "iata": "YVG",
    "latitude": 53.355800628699996,
    "longitude": -110.823997498
  },
  {
    "airportName": "Qikiqtarjuaq Airport",
    "cityName": "Broughton Island",
    "iata": "YVM",
    "latitude": 67.5457992554,
    "longitude": -64.03140258789999
  },
  {
    "airportName": "Val-d'Or Airport",
    "cityName": "Val D'or",
    "iata": "YVO",
    "latitude": 48.0532989502,
    "longitude": -77.7827987671
  },
  {
    "airportName": "Kuujjuaq Airport",
    "cityName": "Quujjuaq",
    "iata": "YVP",
    "latitude": 58.096099853515625,
    "longitude": -68.4269027709961
  },
  {
    "airportName": "Norman Wells Airport",
    "cityName": "Norman Wells",
    "iata": "YVQ",
    "latitude": 65.28160095214844,
    "longitude": -126.7979965209961
  },
  {
    "airportName": "Vancouver International Airport",
    "cityName": "Vancouver",
    "iata": "YVR",
    "latitude": 49.193901062,
    "longitude": -123.183998108
  },
  {
    "airportName": "Buffalo Narrows Airport",
    "cityName": "Buffalo Narrows",
    "iata": "YVT",
    "latitude": 55.8418998718,
    "longitude": -108.417999268
  },
  {
    "airportName": "Wiarton Airport",
    "cityName": "Wiarton",
    "iata": "YVV",
    "latitude": 44.7458,
    "longitude": -81.107201
  },
  {
    "airportName": "Petawawa Airport",
    "cityName": "Petawawa",
    "iata": "YWA",
    "latitude": 45.95220184326172,
    "longitude": -77.31919860839844
  },
  {
    "airportName": "Winnipeg ",
    "cityName": "Winnipeg",
    "iata": "YWG",
    "latitude": 49.909999847399995,
    "longitude": -97.2398986816
  },
  {
    "airportName": "Wabush Airport",
    "cityName": "Wabush",
    "iata": "YWK",
    "latitude": 52.92190170288086,
    "longitude": -66.8644027709961
  },
  {
    "airportName": "Williams Lake Airport",
    "cityName": "Williams Lake",
    "iata": "YWL",
    "latitude": 52.1831016541,
    "longitude": -122.054000854
  },
  {
    "airportName": "Wrigley Airport",
    "cityName": "Wrigley",
    "iata": "YWY",
    "latitude": 63.20940017700195,
    "longitude": -123.43699645996094
  },
  {
    "airportName": "Cranbrook",
    "cityName": "Cranbrook",
    "iata": "YXC",
    "latitude": 49.610801696777,
    "longitude": -115.78199768066
  },
  {
    "airportName": "Edmonton City Centre (Blatchford Field) Airport",
    "cityName": "Edmonton",
    "iata": "YXD",
    "latitude": 53.5724983215,
    "longitude": -113.521003723
  },
  {
    "airportName": "Saskatoon John G. Diefenbaker International Airport",
    "cityName": "Saskatoon",
    "iata": "YXE",
    "latitude": 52.170799255371094,
    "longitude": -106.69999694824219
  },
  {
    "airportName": "Medicine Hat Airport",
    "cityName": "Medicine Hat",
    "iata": "YXH",
    "latitude": 50.01890182495117,
    "longitude": -110.72100067138672
  },
  {
    "airportName": "Fort St John Airport",
    "cityName": "Fort Saint John",
    "iata": "YXJ",
    "latitude": 56.23809814453125,
    "longitude": -120.73999786376953
  },
  {
    "airportName": "Sioux Lookout Airport",
    "cityName": "Sioux Lookout",
    "iata": "YXL",
    "latitude": 50.11389923095703,
    "longitude": -91.9052963256836
  },
  {
    "airportName": "Pangnirtung Airport",
    "cityName": "Pangnirtung",
    "iata": "YXP",
    "latitude": 66.1449966431,
    "longitude": -65.71360015869999
  },
  {
    "airportName": "Earlton (Timiskaming Regional) Airport",
    "cityName": "Earlton",
    "iata": "YXR",
    "latitude": 47.697400654599996,
    "longitude": -79.8473453522
  },
  {
    "airportName": "Prince George Airport",
    "cityName": "Prince George",
    "iata": "YXS",
    "latitude": 53.8894004822,
    "longitude": -122.679000854
  },
  {
    "airportName": "Northwest Regional Airport Terrace-Kitimat",
    "cityName": "Terrace",
    "iata": "YXT",
    "latitude": 54.468498,
    "longitude": -128.576009
  },
  {
    "airportName": "London Airport",
    "cityName": "London",
    "iata": "YXU",
    "latitude": 43.035599,
    "longitude": -81.1539
  },
  {
    "airportName": "Abbotsford Airport",
    "cityName": "Abbotsford",
    "iata": "YXX",
    "latitude": 49.025299072265625,
    "longitude": -122.36100006103516
  },
  {
    "airportName": "Whitehorse ",
    "cityName": "Whitehorse",
    "iata": "YXY",
    "latitude": 60.7095985413,
    "longitude": -135.067001343
  },
  {
    "airportName": "North Bay Jack Garland Airport",
    "cityName": "North Bay",
    "iata": "YYB",
    "latitude": 46.363602,
    "longitude": -79.422798
  },
  {
    "airportName": "Calgary International Airport",
    "cityName": "Calgary",
    "iata": "YYC",
    "latitude": 51.113899231,
    "longitude": -114.019996643
  },
  {
    "airportName": "Smithers Airport",
    "cityName": "Smithers",
    "iata": "YYD",
    "latitude": 54.82469940185547,
    "longitude": -127.18299865722656
  },
  {
    "airportName": "Fort Nelson Airport",
    "cityName": "Fort Nelson",
    "iata": "YYE",
    "latitude": 58.8363990784,
    "longitude": -122.597000122
  },
  {
    "airportName": "Penticton Airport",
    "cityName": "Penticton",
    "iata": "YYF",
    "latitude": 49.46310043334961,
    "longitude": -119.60199737548828
  },
  {
    "airportName": "Charlottetown Airport",
    "cityName": "Charlottetown",
    "iata": "YYG",
    "latitude": 46.290000915527344,
    "longitude": -63.12110137939453
  },
  {
    "airportName": "Taloyoak Airport",
    "cityName": "Spence Bay",
    "iata": "YYH",
    "latitude": 69.5466995239,
    "longitude": -93.5766983032
  },
  {
    "airportName": "Victoria International Airport",
    "cityName": "Victoria",
    "iata": "YYJ",
    "latitude": 48.646900177,
    "longitude": -123.426002502
  },
  {
    "airportName": "Lynn Lake Airport",
    "cityName": "Lynn Lake",
    "iata": "YYL",
    "latitude": 56.86389923095703,
    "longitude": -101.07599639892578
  },
  {
    "airportName": "Swift Current Airport",
    "cityName": "Swift Current",
    "iata": "YYN",
    "latitude": 50.291900634799994,
    "longitude": -107.691001892
  },
  {
    "airportName": "Churchill Airport",
    "cityName": "Churchill",
    "iata": "YYQ",
    "latitude": 58.739200592041016,
    "longitude": -94.06500244140625
  },
  {
    "airportName": "Goose Bay Airport",
    "cityName": "Goose Bay",
    "iata": "YYR",
    "latitude": 53.3191986084,
    "longitude": -60.4258003235
  },
  {
    "airportName": "St. John's International Airport",
    "cityName": "St. John's",
    "iata": "YYT",
    "latitude": 47.618598938,
    "longitude": -52.7518997192
  },
  {
    "airportName": "Kapuskasing Airport",
    "cityName": "Kapuskasing",
    "iata": "YYU",
    "latitude": 49.41389846801758,
    "longitude": -82.46749877929688
  },
  {
    "airportName": "Armstrong Airport",
    "cityName": "Armstrong",
    "iata": "YYW",
    "latitude": 50.29029846191406,
    "longitude": -88.90969848632812
  },
  {
    "airportName": "Mont Joli Airport",
    "cityName": "Mont Joli",
    "iata": "YYY",
    "latitude": 48.60860061645508,
    "longitude": -68.20809936523438
  },
  {
    "airportName": "Lester B. Pearson International Airport",
    "cityName": "Toronto",
    "iata": "YYZ",
    "latitude": 43.6772003174,
    "longitude": -79.63059997559999
  },
  {
    "airportName": "Downsview Airport",
    "cityName": "Toronto",
    "iata": "YZD",
    "latitude": 43.74250030517578,
    "longitude": -79.4655990600586
  },
  {
    "airportName": "Gore Bay Manitoulin Airport",
    "cityName": "Gore Bay",
    "iata": "YZE",
    "latitude": 45.88529968261719,
    "longitude": -82.56780242919922
  },
  {
    "airportName": "Yellowknife Airport",
    "cityName": "Yellowknife",
    "iata": "YZF",
    "latitude": 62.462799072265625,
    "longitude": -114.44000244140625
  },
  {
    "airportName": "Slave Lake Airport",
    "cityName": "Slave Lake",
    "iata": "YZH",
    "latitude": 55.2930984497,
    "longitude": -114.777000427
  },
  {
    "airportName": "Sandspit Airport",
    "cityName": "Sandspit",
    "iata": "YZP",
    "latitude": 53.25429916379999,
    "longitude": -131.813995361
  },
  {
    "airportName": "Chris Hadfield Airport",
    "cityName": "Sarnia",
    "iata": "YZR",
    "latitude": 42.9994010925293,
    "longitude": -82.30889892578125
  },
  {
    "airportName": "Port Hardy Airport",
    "cityName": "Port Hardy",
    "iata": "YZT",
    "latitude": 50.680599212646484,
    "longitude": -127.36699676513672
  },
  {
    "airportName": "Whitecourt Airport",
    "cityName": "Whitecourt",
    "iata": "YZU",
    "latitude": 54.14390182495117,
    "longitude": -115.78700256347656
  },
  {
    "airportName": "Sept-Îles Airport",
    "cityName": "Sept-iles",
    "iata": "YZV",
    "latitude": 50.22330093383789,
    "longitude": -66.2656021118164
  },
  {
    "airportName": "Teslin Airport",
    "cityName": "Teslin",
    "iata": "YZW",
    "latitude": 60.17279815673828,
    "longitude": -132.7429962158203
  },
  {
    "airportName": "CFB Greenwood",
    "cityName": "Greenwood",
    "iata": "YZX",
    "latitude": 44.98440170288086,
    "longitude": -64.91690063476562
  },
  {
    "airportName": "Faro Airport",
    "cityName": "Faro",
    "iata": "ZFA",
    "latitude": 62.20750045776367,
    "longitude": -133.37600708007812
  },
  {
    "airportName": "Fort Mcpherson Airport",
    "cityName": "Fort Mcpherson",
    "iata": "ZFM",
    "latitude": 67.40750122070312,
    "longitude": -134.86099243164062
  },
  {
    "airportName": "Blida Airport",
    "cityName": "Blida",
    "iata": "QLD",
    "latitude": 36.50360107421875,
    "longitude": 2.8141698837280273
  },
  {
    "airportName": "Bou Saada Airport",
    "cityName": "Bou Saada",
    "iata": "BUJ",
    "latitude": 35.33250045776367,
    "longitude": 4.206389904022217
  },
  {
    "airportName": "Soummam Airport",
    "cityName": "Bejaja",
    "iata": "BJA",
    "latitude": 36.7120018005,
    "longitude": 5.0699200630200005
  },
  {
    "airportName": "Houari Boumediene Airport",
    "cityName": "Algier",
    "iata": "ALG",
    "latitude": 36.691001892089844,
    "longitude": 3.215409994125366
  },
  {
    "airportName": "Djanet Inedbirene Airport",
    "cityName": "Djanet",
    "iata": "DJG",
    "latitude": 24.292801,
    "longitude": 9.45244
  },
  {
    "airportName": "Boufarik Airport",
    "cityName": "Boufarik",
    "iata": "\\N",
    "latitude": 36.545799,
    "longitude": 2.87611
  },
  {
    "airportName": "Reggane Airport",
    "cityName": "Reggan",
    "iata": "\\N",
    "latitude": 26.7101,
    "longitude": 0.285647
  },
  {
    "airportName": "Illizi Takhamalt Airport",
    "cityName": "Illizi",
    "iata": "VVZ",
    "latitude": 26.7234992981,
    "longitude": 8.62265014648
  },
  {
    "airportName": "Ain Oussera Airport",
    "cityName": "Ain Oussera",
    "iata": "\\N",
    "latitude": 35.52539825439453,
    "longitude": 2.8787100315093994
  },
  {
    "airportName": "Aguenar – Hadj Bey Akhamok Airport",
    "cityName": "Tamanrasset",
    "iata": "TMR",
    "latitude": 22.8115005493,
    "longitude": 5.45107984543
  },
  {
    "airportName": "Jijel Ferhat Abbas Airport",
    "cityName": "Jijel",
    "iata": "GJL",
    "latitude": 36.7951011658,
    "longitude": 5.87361001968
  },
  {
    "airportName": "Mecheria Airport",
    "cityName": "Mecheria",
    "iata": "MZW",
    "latitude": 33.535900116,
    "longitude": -0.242353007197
  },
  {
    "airportName": "Relizane Airport",
    "cityName": "Relizane",
    "iata": "\\N",
    "latitude": 35.752201,
    "longitude": 0.626272
  },
  {
    "airportName": "Rabah Bitat Airport",
    "cityName": "Annaba",
    "iata": "AAE",
    "latitude": 36.822201,
    "longitude": 7.809174
  },
  {
    "airportName": "Mohamed Boudiaf International Airport",
    "cityName": "Constantine",
    "iata": "CZL",
    "latitude": 36.2760009765625,
    "longitude": 6.620389938354492
  },
  {
    "airportName": "Cheikh Larbi Tébessi Airport",
    "cityName": "Tebessa",
    "iata": "TEE",
    "latitude": 35.4315986633,
    "longitude": 8.12071990967
  },
  {
    "airportName": "Hassi R'Mel Airport",
    "cityName": "Tilrempt",
    "iata": "HRM",
    "latitude": 32.93040084838867,
    "longitude": 3.311539888381958
  },
  {
    "airportName": "Bou Chekif Airport",
    "cityName": "Tiaret",
    "iata": "TID",
    "latitude": 35.3410987854,
    "longitude": 1.46315002441
  },
  {
    "airportName": "Bou Sfer Airport",
    "cityName": "Bou Sfer",
    "iata": "\\N",
    "latitude": 35.73540115356445,
    "longitude": -0.8053889870643616
  },
  {
    "airportName": "Tindouf Airport",
    "cityName": "Tindouf",
    "iata": "TIN",
    "latitude": 27.7003993988,
    "longitude": -8.167099952700001
  },
  {
    "airportName": "Ech Cheliff Airport",
    "cityName": "Ech-cheliff",
    "iata": "CFK",
    "latitude": 36.2126998901,
    "longitude": 1.33176994324
  },
  {
    "airportName": "Tafaraoui Airport",
    "cityName": "Oran",
    "iata": "TAF",
    "latitude": 35.54240036010742,
    "longitude": -0.5322780013084412
  },
  {
    "airportName": "Zenata – Messali El Hadj Airport",
    "cityName": "Tlemcen",
    "iata": "TLM",
    "latitude": 35.0167007446,
    "longitude": -1.45000004768
  },
  {
    "airportName": "Es Senia Airport",
    "cityName": "Oran",
    "iata": "ORN",
    "latitude": 35.6239013672,
    "longitude": -0.6211829781529999
  },
  {
    "airportName": "Sidi Bel Abbes Airport",
    "cityName": "Sidi Bel Abbes",
    "iata": "BFW",
    "latitude": 35.1717987061,
    "longitude": -0.593275010586
  },
  {
    "airportName": "Ghriss Airport",
    "cityName": "Ghriss",
    "iata": "MUW",
    "latitude": 35.207698822021484,
    "longitude": 0.14714199304580688
  },
  {
    "airportName": "Touat Cheikh Sidi Mohamed Belkebir Airport",
    "cityName": "Adrar",
    "iata": "AZR",
    "latitude": 27.837600708007812,
    "longitude": -0.18641400337219238
  },
  {
    "airportName": "Biskra Airport",
    "cityName": "Biskra",
    "iata": "BSK",
    "latitude": 34.793300628699996,
    "longitude": 5.73823022842
  },
  {
    "airportName": "El Golea Airport",
    "cityName": "El Golea",
    "iata": "ELG",
    "latitude": 30.571300506591797,
    "longitude": 2.8595900535583496
  },
  {
    "airportName": "Noumérat - Moufdi Zakaria Airport",
    "cityName": "Ghardaia",
    "iata": "GHA",
    "latitude": 32.38410186767578,
    "longitude": 3.794110059738159
  },
  {
    "airportName": "Oued Irara Airport",
    "cityName": "Hassi Messaoud",
    "iata": "HME",
    "latitude": 31.673000335699996,
    "longitude": 6.140439987180001
  },
  {
    "airportName": "In Salah Airport",
    "cityName": "In Salah",
    "iata": "INZ",
    "latitude": 27.250999450699997,
    "longitude": 2.51202011108
  },
  {
    "airportName": "Touggourt Sidi Madhi Airport",
    "cityName": "Touggourt",
    "iata": "TGR",
    "latitude": 33.06779861450195,
    "longitude": 6.088669776916504
  },
  {
    "airportName": "Laghouat Airport",
    "cityName": "Laghouat",
    "iata": "LOO",
    "latitude": 33.764400482199996,
    "longitude": 2.92833995819
  },
  {
    "airportName": "Timimoun Airport",
    "cityName": "Timimoun",
    "iata": "TMX",
    "latitude": 29.2371006012,
    "longitude": 0.276033014059
  },
  {
    "airportName": "Ain el Beida Airport",
    "cityName": "Ouargla",
    "iata": "OGX",
    "latitude": 31.917200088500977,
    "longitude": 5.412779808044434
  },
  {
    "airportName": "In Aménas Airport",
    "cityName": "Zarzaitine",
    "iata": "IAM",
    "latitude": 28.0515,
    "longitude": 9.64291
  },
  {
    "airportName": "Cadjehoun Airport",
    "cityName": "Cotonou",
    "iata": "COO",
    "latitude": 6.357230186462402,
    "longitude": 2.384350061416626
  },
  {
    "airportName": "Ouagadougou Airport",
    "cityName": "Ouagadougou",
    "iata": "OUA",
    "latitude": 12.3532,
    "longitude": -1.51242
  },
  {
    "airportName": "Bobo Dioulasso Airport",
    "cityName": "Bobo-dioulasso",
    "iata": "BOY",
    "latitude": 11.160099983215332,
    "longitude": -4.33096981048584
  },
  {
    "airportName": "Kotoka International Airport",
    "cityName": "Accra",
    "iata": "ACC",
    "latitude": 5.605189800262451,
    "longitude": -0.16678600013256073
  },
  {
    "airportName": "Tamale Airport",
    "cityName": "Tamale",
    "iata": "TML",
    "latitude": 9.55718994140625,
    "longitude": -0.8632140159606934
  },
  {
    "airportName": "Wa Airport",
    "cityName": "Wa",
    "iata": "\\N",
    "latitude": 10.0826997756958,
    "longitude": -2.507689952850342
  },
  {
    "airportName": "Sunyani Airport",
    "cityName": "Sunyani",
    "iata": "NYI",
    "latitude": 7.361830234527588,
    "longitude": -2.3287599086761475
  },
  {
    "airportName": "Takoradi Airport",
    "cityName": "Takoradi",
    "iata": "TKD",
    "latitude": 4.896059989929199,
    "longitude": -1.7747600078582764
  },
  {
    "airportName": "Port Bouet Airport",
    "cityName": "Abidjan",
    "iata": "ABJ",
    "latitude": 5.261390209197998,
    "longitude": -3.9262900352478027
  },
  {
    "airportName": "Bouaké Airport",
    "cityName": "Bouake",
    "iata": "BYK",
    "latitude": 7.738800048828125,
    "longitude": -5.073669910430908
  },
  {
    "airportName": "Daloa Airport",
    "cityName": "Daloa",
    "iata": "DJO",
    "latitude": 6.792809963226318,
    "longitude": -6.473189830780029
  },
  {
    "airportName": "Korhogo Airport",
    "cityName": "Korhogo",
    "iata": "HGO",
    "latitude": 9.38718032837,
    "longitude": -5.55666017532
  },
  {
    "airportName": "Man Airport",
    "cityName": "Man",
    "iata": "MJC",
    "latitude": 7.272069931030273,
    "longitude": -7.58735990524292
  },
  {
    "airportName": "San Pedro Airport",
    "cityName": "San Pedro",
    "iata": "SPY",
    "latitude": 4.746719837188721,
    "longitude": -6.660820007324219
  },
  {
    "airportName": "Yamoussoukro Airport",
    "cityName": "Yamoussoukro",
    "iata": "ASK",
    "latitude": 6.9031701088,
    "longitude": -5.36558008194
  },
  {
    "airportName": "Nnamdi Azikiwe International Airport",
    "cityName": "Abuja",
    "iata": "ABV",
    "latitude": 9.006790161132812,
    "longitude": 7.263169765472412
  },
  {
    "airportName": "Akure Airport",
    "cityName": "Akure",
    "iata": "AKR",
    "latitude": 7.246739864349365,
    "longitude": 5.3010101318359375
  },
  {
    "airportName": "Benin Airport",
    "cityName": "Benin",
    "iata": "BNI",
    "latitude": 6.316979885101318,
    "longitude": 5.5995001792907715
  },
  {
    "airportName": "Margaret Ekpo International Airport",
    "cityName": "Calabar",
    "iata": "CBQ",
    "latitude": 4.976019859313965,
    "longitude": 8.347200393676758
  },
  {
    "airportName": "Akanu Ibiam International Airport",
    "cityName": "Enugu",
    "iata": "ENU",
    "latitude": 6.474269866943359,
    "longitude": 7.561960220336914
  },
  {
    "airportName": "Gusau Airport",
    "cityName": "Gusau",
    "iata": "\\N",
    "latitude": 12.1717,
    "longitude": 6.69611
  },
  {
    "airportName": "Ibadan Airport",
    "cityName": "Ibadan",
    "iata": "IBA",
    "latitude": 7.362460136413574,
    "longitude": 3.97832989692688
  },
  {
    "airportName": "Ilorin International Airport",
    "cityName": "Ilorin",
    "iata": "ILR",
    "latitude": 8.440210342407227,
    "longitude": 4.493919849395752
  },
  {
    "airportName": "Yakubu Gowon Airport",
    "cityName": "Jos",
    "iata": "JOS",
    "latitude": 9.639829635620117,
    "longitude": 8.869050025939941
  },
  {
    "airportName": "Kaduna Airport",
    "cityName": "Kaduna",
    "iata": "KAD",
    "latitude": 10.696000099182129,
    "longitude": 7.320109844207764
  },
  {
    "airportName": "Mallam Aminu International Airport",
    "cityName": "Kano",
    "iata": "KAN",
    "latitude": 12.0476,
    "longitude": 8.52462
  },
  {
    "airportName": "Maiduguri International Airport",
    "cityName": "Maiduguri",
    "iata": "MIU",
    "latitude": 11.855299949645996,
    "longitude": 13.080900192260742
  },
  {
    "airportName": "Makurdi Airport",
    "cityName": "Makurdi",
    "iata": "MDI",
    "latitude": 7.70388,
    "longitude": 8.61394
  },
  {
    "airportName": "Murtala Muhammed International Airport",
    "cityName": "Lagos",
    "iata": "LOS",
    "latitude": 6.5773701667785645,
    "longitude": 3.321160078048706
  },
  {
    "airportName": "Minna Airport",
    "cityName": "Minna",
    "iata": "MXJ",
    "latitude": 9.652170181274414,
    "longitude": 6.462259769439697
  },
  {
    "airportName": "Port Harcourt International Airport",
    "cityName": "Port Hartcourt",
    "iata": "PHC",
    "latitude": 5.0154900550842285,
    "longitude": 6.94959020614624
  },
  {
    "airportName": "Sadiq Abubakar III International Airport",
    "cityName": "Sokoto",
    "iata": "SKO",
    "latitude": 12.916299819946289,
    "longitude": 5.207190036773682
  },
  {
    "airportName": "Yola Airport",
    "cityName": "Yola",
    "iata": "YOL",
    "latitude": 9.257550239562988,
    "longitude": 12.430399894714355
  },
  {
    "airportName": "Zaria Airport",
    "cityName": "Zaria",
    "iata": "ZAR",
    "latitude": 11.1302,
    "longitude": 7.68581
  },
  {
    "airportName": "Maradi Airport",
    "cityName": "Maradi",
    "iata": "MFQ",
    "latitude": 13.5024995803833,
    "longitude": 7.1267499923706055
  },
  {
    "airportName": "Diori Hamani International Airport",
    "cityName": "Niamey",
    "iata": "NIM",
    "latitude": 13.4815,
    "longitude": 2.18361
  },
  {
    "airportName": "Tahoua Airport",
    "cityName": "Tahoua",
    "iata": "THZ",
    "latitude": 14.875699996948242,
    "longitude": 5.265359878540039
  },
  {
    "airportName": "Mano Dayak International Airport",
    "cityName": "Agadez",
    "iata": "AJY",
    "latitude": 16.965999603271484,
    "longitude": 8.000109672546387
  },
  {
    "airportName": "Dirkou Airport",
    "cityName": "Dirkou",
    "iata": "\\N",
    "latitude": 18.968700408935547,
    "longitude": 12.86870002746582
  },
  {
    "airportName": "Diffa Airport",
    "cityName": "Diffa",
    "iata": "\\N",
    "latitude": 13.372900009155273,
    "longitude": 12.626700401306152
  },
  {
    "airportName": "Zinder Airport",
    "cityName": "Zinder",
    "iata": "ZND",
    "latitude": 13.779000282287598,
    "longitude": 8.983759880065918
  },
  {
    "airportName": "Monastir Habib Bourguiba International Airport",
    "cityName": "Monastir",
    "iata": "MIR",
    "latitude": 35.75809860229492,
    "longitude": 10.75469970703125
  },
  {
    "airportName": "Tunis Carthage International Airport",
    "cityName": "Tunis",
    "iata": "TUN",
    "latitude": 36.85100173950195,
    "longitude": 10.22719955444336
  },
  {
    "airportName": "Sidi Ahmed Air Base",
    "cityName": "Bizerte",
    "iata": "\\N",
    "latitude": 37.245398,
    "longitude": 9.79145
  },
  {
    "airportName": "Remada Air Base",
    "cityName": "Remada",
    "iata": "\\N",
    "latitude": 32.30619812011719,
    "longitude": 10.382100105285645
  },
  {
    "airportName": "Gafsa Ksar International Airport",
    "cityName": "Gafsa",
    "iata": "GAF",
    "latitude": 34.422000885009766,
    "longitude": 8.822500228881836
  },
  {
    "airportName": "Gabès Matmata International Airport",
    "cityName": "Gabes",
    "iata": "GAE",
    "latitude": 33.87689971923828,
    "longitude": 10.103300094604492
  },
  {
    "airportName": "Borj El Amri Airport",
    "cityName": "Bordj El Amri",
    "iata": "\\N",
    "latitude": 36.72129821777344,
    "longitude": 9.94314956665039
  },
  {
    "airportName": "Djerba Zarzis International Airport",
    "cityName": "Djerba",
    "iata": "DJE",
    "latitude": 33.875,
    "longitude": 10.775500297546387
  },
  {
    "airportName": "El Borma Airport",
    "cityName": "El Borma",
    "iata": "EBM",
    "latitude": 31.704299926757812,
    "longitude": 9.254619598388672
  },
  {
    "airportName": "Sfax Thyna International Airport",
    "cityName": "Sfax",
    "iata": "SFA",
    "latitude": 34.71799850463867,
    "longitude": 10.690999984741211
  },
  {
    "airportName": "Tozeur Nefta International Airport",
    "cityName": "Tozeur",
    "iata": "TOE",
    "latitude": 33.939701080322266,
    "longitude": 8.110560417175293
  },
  {
    "airportName": "Niamtougou International Airport",
    "cityName": "Niatougou",
    "iata": "LRL",
    "latitude": 9.767330169677734,
    "longitude": 1.091249942779541
  },
  {
    "airportName": "Lomé-Tokoin Airport",
    "cityName": "Lome",
    "iata": "LFW",
    "latitude": 6.165609836578369,
    "longitude": 1.2545100450515747
  },
  {
    "airportName": "Antwerp International Airport (Deurne)",
    "cityName": "Antwerp",
    "iata": "ANR",
    "latitude": 51.1893997192,
    "longitude": 4.46027994156
  },
  {
    "airportName": "Beauvechain Air Base",
    "cityName": "Beauvechain",
    "iata": "\\N",
    "latitude": 50.75859832763672,
    "longitude": 4.768330097198486
  },
  {
    "airportName": "Kleine Brogel Air Base",
    "cityName": "Kleine Brogel",
    "iata": "\\N",
    "latitude": 51.168301,
    "longitude": 5.47
  },
  {
    "airportName": "Brussels Airport",
    "cityName": "Brussels",
    "iata": "BRU",
    "latitude": 50.901401519800004,
    "longitude": 4.48443984985
  },
  {
    "airportName": "Jehonville Air Base",
    "cityName": "Bertrix",
    "iata": "\\N",
    "latitude": 49.891700744628906,
    "longitude": 5.2238898277282715
  },
  {
    "airportName": "Brussels South Charleroi Airport",
    "cityName": "Charleroi",
    "iata": "CRL",
    "latitude": 50.459202,
    "longitude": 4.45382
  },
  {
    "airportName": "Chièvres Air Base",
    "cityName": "Chievres",
    "iata": "\\N",
    "latitude": 50.575801849365234,
    "longitude": 3.8310000896453857
  },
  {
    "airportName": "Koksijde Air Base",
    "cityName": "Koksijde",
    "iata": "\\N",
    "latitude": 51.090301513671875,
    "longitude": 2.652780055999756
  },
  {
    "airportName": "Florennes Air Base",
    "cityName": "Florennes",
    "iata": "\\N",
    "latitude": 50.2433013916,
    "longitude": 4.64583015442
  },
  {
    "airportName": "Wevelgem Airport",
    "cityName": "Kortrijk-vevelgem",
    "iata": "KJK",
    "latitude": 50.817199707,
    "longitude": 3.20472002029
  },
  {
    "airportName": "Liège Airport",
    "cityName": "Liege",
    "iata": "LGG",
    "latitude": 50.63740158081055,
    "longitude": 5.443220138549805
  },
  {
    "airportName": "Ostend-Bruges International Airport",
    "cityName": "Ostend",
    "iata": "OST",
    "latitude": 51.198898315399994,
    "longitude": 2.8622200489
  },
  {
    "airportName": "Zutendaal Air Base",
    "cityName": "Zutendaal",
    "iata": "\\N",
    "latitude": 50.9474983215332,
    "longitude": 5.590559959411621
  },
  {
    "airportName": "Brustem Airfield Sint Truiden",
    "cityName": "Sint-truiden",
    "iata": "\\N",
    "latitude": 50.791901,
    "longitude": 5.20167
  },
  {
    "airportName": "Saint Hubert Air Base",
    "cityName": "St.-hubert",
    "iata": "\\N",
    "latitude": 50.034400939941406,
    "longitude": 5.440810203552246
  },
  {
    "airportName": "Ursel Air Base",
    "cityName": "Ursel",
    "iata": "\\N",
    "latitude": 51.14419937133789,
    "longitude": 3.475559949874878
  },
  {
    "airportName": "Weelde Air Base",
    "cityName": "Weelde",
    "iata": "\\N",
    "latitude": 51.394798278808594,
    "longitude": 4.9601898193359375
  },
  {
    "airportName": "Zoersel (Oostmalle) Airfield",
    "cityName": "Zoersel",
    "iata": "OBL",
    "latitude": 51.264702,
    "longitude": 4.75333
  },
  {
    "airportName": "Flugplatz Bautzen",
    "cityName": "Bautzen",
    "iata": "\\N",
    "latitude": 51.193611,
    "longitude": 14.519722
  },
  {
    "airportName": "Altenburg-Nobitz Airport",
    "cityName": "Altenburg",
    "iata": "AOC",
    "latitude": 50.981945,
    "longitude": 12.506389
  },
  {
    "airportName": "Dessau Airfield",
    "cityName": "Dessau",
    "iata": "\\N",
    "latitude": 51.831694,
    "longitude": 12.190962
  },
  {
    "airportName": "Eisenhüttenstadt Airfield",
    "cityName": "Eisenhuettenstadt",
    "iata": "\\N",
    "latitude": 52.195856,
    "longitude": 14.58753
  },
  {
    "airportName": "Großenhain Airport",
    "cityName": "Suhl",
    "iata": "\\N",
    "latitude": 51.30805587768555,
    "longitude": 13.555556297302246
  },
  {
    "airportName": "Merseburg Airport",
    "cityName": "Muehlhausen",
    "iata": "\\N",
    "latitude": 51.3630556,
    "longitude": 11.9408333
  },
  {
    "airportName": "Halle-Oppin Airport",
    "cityName": "Halle",
    "iata": "\\N",
    "latitude": 51.552223,
    "longitude": 12.053889
  },
  {
    "airportName": "Riesa-Göhlis Airport",
    "cityName": "Riesa",
    "iata": "IES",
    "latitude": 51.2936096191,
    "longitude": 13.3561105728
  },
  {
    "airportName": "Rechlin-Lärz Airport",
    "cityName": "Rechlin-laerz",
    "iata": "REB",
    "latitude": 53.306388855,
    "longitude": 12.7522220612
  },
  {
    "airportName": "Strausberg Airport",
    "cityName": "Strausberg",
    "iata": "\\N",
    "latitude": 52.5805549621582,
    "longitude": 13.916666984558105
  },
  {
    "airportName": "Schönhagen Airport",
    "cityName": "Schoenhagen",
    "iata": "QXH",
    "latitude": 52.203609,
    "longitude": 13.156389
  },
  {
    "airportName": "Barth Airport",
    "cityName": "Barth",
    "iata": "BBH",
    "latitude": 54.338253,
    "longitude": 12.710515
  },
  {
    "airportName": "Jena-Schöngleina Airfield",
    "cityName": "Jena",
    "iata": "\\N",
    "latitude": 50.915279,
    "longitude": 11.714444
  },
  {
    "airportName": "Kyritz Airport",
    "cityName": "Kyritz",
    "iata": "\\N",
    "latitude": 52.918888092041016,
    "longitude": 12.425277709960938
  },
  {
    "airportName": "Magdeburg \"City\" Airport",
    "cityName": "Magdeburg",
    "iata": "ZMG",
    "latitude": 52.073612,
    "longitude": 11.626389
  },
  {
    "airportName": "Rothenburg",
    "cityName": "Rothenburg",
    "iata": "\\N",
    "latitude": 51.36333465576172,
    "longitude": 14.949999809265137
  },
  {
    "airportName": "Anklam Airfield",
    "cityName": "Anklam",
    "iata": "\\N",
    "latitude": 53.832779,
    "longitude": 13.668611
  },
  {
    "airportName": "Cottbus-Drewitz Airport",
    "cityName": "Cottbus",
    "iata": "CBU",
    "latitude": 51.889442,
    "longitude": 14.531944
  },
  {
    "airportName": "Kamenz Airport",
    "cityName": "Kamenz",
    "iata": "\\N",
    "latitude": 51.29694366455078,
    "longitude": 14.1274995803833
  },
  {
    "airportName": "Berlin-Schönefeld Airport",
    "cityName": "Berlin",
    "iata": "SXF",
    "latitude": 52.380001,
    "longitude": 13.5225
  },
  {
    "airportName": "Dresden Airport",
    "cityName": "Dresden",
    "iata": "DRS",
    "latitude": 51.1328010559082,
    "longitude": 13.767200469970703
  },
  {
    "airportName": "Erfurt Airport",
    "cityName": "Erfurt",
    "iata": "ERF",
    "latitude": 50.979801177978516,
    "longitude": 10.958100318908691
  },
  {
    "airportName": "Frankfurt am Main Airport",
    "cityName": "Frankfurt",
    "iata": "FRA",
    "latitude": 50.033333,
    "longitude": 8.570556
  },
  {
    "airportName": "Münster Osnabrück Airport",
    "cityName": "Munster",
    "iata": "FMO",
    "latitude": 52.134601593,
    "longitude": 7.68483018875
  },
  {
    "airportName": "Hamburg Airport",
    "cityName": "Hamburg",
    "iata": "HAM",
    "latitude": 53.630401611328,
    "longitude": 9.9882297515869
  },
  {
    "airportName": "Berlin-Tempelhof International Airport",
    "cityName": "Berlin",
    "iata": "THF",
    "latitude": 52.472999572753906,
    "longitude": 13.403900146484375
  },
  {
    "airportName": "Cologne Bonn Airport",
    "cityName": "Cologne",
    "iata": "CGN",
    "latitude": 50.8658981323,
    "longitude": 7.1427397728
  },
  {
    "airportName": "Düsseldorf Airport",
    "cityName": "Duesseldorf",
    "iata": "DUS",
    "latitude": 51.289501,
    "longitude": 6.76678
  },
  {
    "airportName": "Munich Airport",
    "cityName": "Munich",
    "iata": "MUC",
    "latitude": 48.353802,
    "longitude": 11.7861
  },
  {
    "airportName": "Nuremberg Airport",
    "cityName": "Nuernberg",
    "iata": "NUE",
    "latitude": 49.498699,
    "longitude": 11.078056
  },
  {
    "airportName": "Leipzig",
    "cityName": "Leipzig",
    "iata": "LEJ",
    "latitude": 51.423889,
    "longitude": 12.236389
  },
  {
    "airportName": "Saarbrücken Airport",
    "cityName": "Saarbruecken",
    "iata": "SCN",
    "latitude": 49.214599609400004,
    "longitude": 7.10950994492
  },
  {
    "airportName": "Stuttgart Airport",
    "cityName": "Stuttgart",
    "iata": "STR",
    "latitude": 48.689899444599995,
    "longitude": 9.22196006775
  },
  {
    "airportName": "Berlin-Tegel Airport",
    "cityName": "Berlin",
    "iata": "TXL",
    "latitude": 52.5597,
    "longitude": 13.2877
  },
  {
    "airportName": "Hannover Airport",
    "cityName": "Hannover",
    "iata": "HAJ",
    "latitude": 52.461101532,
    "longitude": 9.685079574580001
  },
  {
    "airportName": "Bremen Airport",
    "cityName": "Bremen",
    "iata": "BRE",
    "latitude": 53.0475006104,
    "longitude": 8.78666973114
  },
  {
    "airportName": "Frankfurt-Egelsbach Airport",
    "cityName": "Egelsbach",
    "iata": "QEF",
    "latitude": 49.959999,
    "longitude": 8.645833
  },
  {
    "airportName": "Frankfurt-Hahn Airport",
    "cityName": "Hahn",
    "iata": "HHN",
    "latitude": 49.9487,
    "longitude": 7.26389
  },
  {
    "airportName": "Mannheim-City Airport",
    "cityName": "Mannheim",
    "iata": "MHG",
    "latitude": 49.473057,
    "longitude": 8.514167
  },
  {
    "airportName": "Allendorf",
    "cityName": "Allendorf",
    "iata": "\\N",
    "latitude": 51.03499984741211,
    "longitude": 8.680832862854004
  },
  {
    "airportName": "Worms Airport",
    "cityName": "Worms",
    "iata": "\\N",
    "latitude": 49.606945,
    "longitude": 8.368333
  },
  {
    "airportName": "Mainz-Finthen Airport",
    "cityName": "Mainz",
    "iata": "\\N",
    "latitude": 49.967499,
    "longitude": 8.147222
  },
  {
    "airportName": "Eisenach-Kindel Airport",
    "cityName": "Eisenach",
    "iata": "EIB",
    "latitude": 50.991604,
    "longitude": 10.47973
  },
  {
    "airportName": "Siegerland Airport",
    "cityName": "Siegerland",
    "iata": "SGE",
    "latitude": 50.707698822021484,
    "longitude": 8.082969665527344
  },
  {
    "airportName": "Hamburg-Finkenwerder Airport",
    "cityName": "Hamburg",
    "iata": "XFW",
    "latitude": 53.5352783203125,
    "longitude": 9.835556030273438
  },
  {
    "airportName": "Kiel-Holtenau Airport",
    "cityName": "Kiel",
    "iata": "KEL",
    "latitude": 54.37944412231445,
    "longitude": 10.145277976989746
  },
  {
    "airportName": "Lübeck Blankensee Airport",
    "cityName": "Luebeck",
    "iata": "LBC",
    "latitude": 53.8054008484,
    "longitude": 10.7192001343
  },
  {
    "airportName": "Flugplatz Dahlemer Binz",
    "cityName": "Dahlemer Binz",
    "iata": "\\N",
    "latitude": 50.405555725,
    "longitude": 6.5288891792
  },
  {
    "airportName": "Meinerzhagen Airport",
    "cityName": "Meinerzhagen",
    "iata": "\\N",
    "latitude": 51.099998474121094,
    "longitude": 7.599999904632568
  },
  {
    "airportName": "Arnsberg-Menden Airport",
    "cityName": "Arnsberg",
    "iata": "\\N",
    "latitude": 51.483890533447266,
    "longitude": 7.8983330726623535
  },
  {
    "airportName": "Essen Mulheim Airport",
    "cityName": "Essen",
    "iata": "ESS",
    "latitude": 51.40230178833008,
    "longitude": 6.9373297691345215
  },
  {
    "airportName": "Bielefeld Airport",
    "cityName": "Bielefeld",
    "iata": "BFE",
    "latitude": 51.964722,
    "longitude": 8.544444
  },
  {
    "airportName": "Mönchengladbach Airport",
    "cityName": "Moenchengladbach",
    "iata": "MGL",
    "latitude": 51.230278,
    "longitude": 6.504444
  },
  {
    "airportName": "Paderborn Lippstadt Airport",
    "cityName": "Paderborn",
    "iata": "PAD",
    "latitude": 51.614101409899995,
    "longitude": 8.616319656369999
  },
  {
    "airportName": "Stadtlohn-Vreden Airport",
    "cityName": "Stadtlohn",
    "iata": "\\N",
    "latitude": 51.99583435058594,
    "longitude": 6.8405561447143555
  },
  {
    "airportName": "Dortmund Airport",
    "cityName": "Dortmund",
    "iata": "DTM",
    "latitude": 51.51829910279999,
    "longitude": 7.61223983765
  },
  {
    "airportName": "Augsburg Airport",
    "cityName": "Augsburg",
    "iata": "AGB",
    "latitude": 48.425278,
    "longitude": 10.931667
  },
  {
    "airportName": "Biberach a.d. Riß Airfield",
    "cityName": "Biberach",
    "iata": "\\N",
    "latitude": 48.111111,
    "longitude": 9.762778
  },
  {
    "airportName": "Eggenfelden Airport",
    "cityName": "Eggenfelden",
    "iata": "\\N",
    "latitude": 48.39611053466797,
    "longitude": 12.723610877990723
  },
  {
    "airportName": "Mindelheim-Mattsies Airfield",
    "cityName": "Mindelheim",
    "iata": "\\N",
    "latitude": 48.106945,
    "longitude": 10.525
  },
  {
    "airportName": "Oberpfaffenhofen Airport",
    "cityName": "Oberpfaffenhofen",
    "iata": "OBF",
    "latitude": 48.081402,
    "longitude": 11.2831
  },
  {
    "airportName": "Straubing Airport",
    "cityName": "Straubing",
    "iata": "RBM",
    "latitude": 48.90083312988281,
    "longitude": 12.516667366027832
  },
  {
    "airportName": "Vilshofen Airport",
    "cityName": "Vilshofen",
    "iata": "\\N",
    "latitude": 48.6349983215332,
    "longitude": 13.195555686950684
  },
  {
    "airportName": "Leutkirch-Unterzeil Airport",
    "cityName": "Leutkirch",
    "iata": "\\N",
    "latitude": 47.858890533447266,
    "longitude": 10.014166831970215
  },
  {
    "airportName": "Friedrichshafen Airport",
    "cityName": "Friedrichshafen",
    "iata": "FDH",
    "latitude": 47.671298980699994,
    "longitude": 9.51148986816
  },
  {
    "airportName": "Schwerin Parchim Airport",
    "cityName": "Parchim",
    "iata": "SZW",
    "latitude": 53.426998,
    "longitude": 11.7834
  },
  {
    "airportName": "Stendal-Borstel Airport",
    "cityName": "Stendal",
    "iata": "\\N",
    "latitude": 52.62888717651367,
    "longitude": 11.818611145019531
  },
  {
    "airportName": "Aalen-Heidenheim",
    "cityName": "Aalen-heidenheim",
    "iata": "\\N",
    "latitude": 48.77777862548828,
    "longitude": 10.264721870422363
  },
  {
    "airportName": "Bayreuth Airport",
    "cityName": "Bayreuth",
    "iata": "BYU",
    "latitude": 49.985001,
    "longitude": 11.64
  },
  {
    "airportName": "Burg Feuerstein Airport",
    "cityName": "Burg Feuerstein",
    "iata": "URD",
    "latitude": 49.794166564941,
    "longitude": 11.133610725403
  },
  {
    "airportName": "Hof-Plauen Airport",
    "cityName": "Hof",
    "iata": "HOQ",
    "latitude": 50.288612365722656,
    "longitude": 11.856389045715332
  },
  {
    "airportName": "Haßfurt-Schweinfurt Airport",
    "cityName": "Hassfurt",
    "iata": "\\N",
    "latitude": 50.0180549621582,
    "longitude": 10.529443740844727
  },
  {
    "airportName": "Koblenz-Winningen Airfield",
    "cityName": "Koblenz",
    "iata": "\\N",
    "latitude": 50.325558,
    "longitude": 7.528611
  },
  {
    "airportName": "Trier-Föhren Airport",
    "cityName": "Trier",
    "iata": "\\N",
    "latitude": 49.863888,
    "longitude": 6.7875
  },
  {
    "airportName": "Speyer Airfield",
    "cityName": "Speyer",
    "iata": "\\N",
    "latitude": 49.304722,
    "longitude": 8.451389
  },
  {
    "airportName": "Zweibrücken Airport",
    "cityName": "Zweibruecken",
    "iata": "ZQW",
    "latitude": 49.2094,
    "longitude": 7.40056
  },
  {
    "airportName": "Donaueschingen-Villingen Airport",
    "cityName": "Donaueschingen",
    "iata": "ZQL",
    "latitude": 47.97333145139999,
    "longitude": 8.52222156525
  },
  {
    "airportName": "Freiburg i. Br. Airport",
    "cityName": "Freiburg",
    "iata": "\\N",
    "latitude": 48.022777557400005,
    "longitude": 7.83249998093
  },
  {
    "airportName": "Mengen-Hohentengen Airport",
    "cityName": "Mengen",
    "iata": "\\N",
    "latitude": 48.053890228271484,
    "longitude": 9.372777938842773
  },
  {
    "airportName": "Adolf Würth Airport",
    "cityName": "Schwaebisch Hall",
    "iata": "\\N",
    "latitude": 49.1183319092,
    "longitude": 9.783888816829998
  },
  {
    "airportName": "Finsterwalde",
    "cityName": "Soest",
    "iata": "\\N",
    "latitude": 51.607498,
    "longitude": 13.743611
  },
  {
    "airportName": "Braunschweig-Wolfsburg Airport",
    "cityName": "Braunschweig",
    "iata": "BWE",
    "latitude": 52.319199,
    "longitude": 10.5561
  },
  {
    "airportName": "Kassel-Calden Airport",
    "cityName": "Kassel",
    "iata": "KSF",
    "latitude": 51.417273,
    "longitude": 9.384967
  },
  {
    "airportName": "Hildesheim Airport",
    "cityName": "Hildesheim",
    "iata": "\\N",
    "latitude": 52.18138885498047,
    "longitude": 9.946389198303223
  },
  {
    "airportName": "Bremerhaven Airport",
    "cityName": "Bremerhaven",
    "iata": "BRV",
    "latitude": 53.506943,
    "longitude": 8.572778
  },
  {
    "airportName": "Emden Airport",
    "cityName": "Emden",
    "iata": "EME",
    "latitude": 53.391109,
    "longitude": 7.2275
  },
  {
    "airportName": "Leer-Papenburg Airport",
    "cityName": "Leer",
    "iata": "\\N",
    "latitude": 53.271942138671875,
    "longitude": 7.441667079925537
  },
  {
    "airportName": "Wilhelmshaven-Mariensiel Airport",
    "cityName": "Wilhelmshaven",
    "iata": "WVN",
    "latitude": 53.502220153808594,
    "longitude": 8.05222225189209
  },
  {
    "airportName": "Borkum Airport",
    "cityName": "Borkum",
    "iata": "BMK",
    "latitude": 53.59639,
    "longitude": 6.709167
  },
  {
    "airportName": "Norderney Airport",
    "cityName": "Norderney",
    "iata": "NRD",
    "latitude": 53.70694351196289,
    "longitude": 7.230000019073486
  },
  {
    "airportName": "Flensburg-Schäferhaus Airport",
    "cityName": "Flensburg",
    "iata": "FLF",
    "latitude": 54.77333450317383,
    "longitude": 9.378889083862305
  },
  {
    "airportName": "Rendsburg-Schachtholm Airport",
    "cityName": "Rendsburg",
    "iata": "\\N",
    "latitude": 54.220001220703125,
    "longitude": 9.599444389343262
  },
  {
    "airportName": "Westerland Sylt Airport",
    "cityName": "Westerland",
    "iata": "GWT",
    "latitude": 54.9132003784,
    "longitude": 8.34047031403
  },
  {
    "airportName": "Ämari Air Base",
    "cityName": "Armari Air Force Base",
    "iata": "\\N",
    "latitude": 59.26029968261719,
    "longitude": 24.208499908447266
  },
  {
    "airportName": "Kärdla Airport",
    "cityName": "Kardla",
    "iata": "KDL",
    "latitude": 58.99079895019531,
    "longitude": 22.830699920654297
  },
  {
    "airportName": "Kuressaare Airport",
    "cityName": "Kuressaare",
    "iata": "URE",
    "latitude": 58.22990036010742,
    "longitude": 22.50950050354004
  },
  {
    "airportName": "Pärnu Airport",
    "cityName": "Parnu",
    "iata": "EPU",
    "latitude": 58.41899871826172,
    "longitude": 24.47279930114746
  },
  {
    "airportName": "Lennart Meri Tallinn Airport",
    "cityName": "Tallinn-ulemiste International",
    "iata": "TLL",
    "latitude": 59.41329956049999,
    "longitude": 24.832799911499997
  },
  {
    "airportName": "Tartu Airport",
    "cityName": "Tartu",
    "iata": "TAY",
    "latitude": 58.3074989319,
    "longitude": 26.690399169900004
  },
  {
    "airportName": "Enontekio Airport",
    "cityName": "Enontekio",
    "iata": "ENF",
    "latitude": 68.362602233887,
    "longitude": 23.424299240112
  },
  {
    "airportName": "Eura Airport",
    "cityName": "Eura",
    "iata": "\\N",
    "latitude": 61.1161003112793,
    "longitude": 22.201400756835938
  },
  {
    "airportName": "Halli Airport",
    "cityName": "Halli",
    "iata": "KEV",
    "latitude": 61.856039,
    "longitude": 24.786686
  },
  {
    "airportName": "Helsinki Malmi Airport",
    "cityName": "Helsinki",
    "iata": "HEM",
    "latitude": 60.254600524902344,
    "longitude": 25.042800903320312
  },
  {
    "airportName": "Helsinki Vantaa Airport",
    "cityName": "Helsinki",
    "iata": "HEL",
    "latitude": 60.317199707031,
    "longitude": 24.963300704956
  },
  {
    "airportName": "Hameenkyro Airport",
    "cityName": "Hameenkyro",
    "iata": "\\N",
    "latitude": 61.689701080322266,
    "longitude": 23.073699951171875
  },
  {
    "airportName": "Hanko Airport",
    "cityName": "Hanko",
    "iata": "\\N",
    "latitude": 59.848899841308594,
    "longitude": 23.083599090576172
  },
  {
    "airportName": "Hyvinkää Airfield",
    "cityName": "Hyvinkaa",
    "iata": "HYV",
    "latitude": 60.6543998718,
    "longitude": 24.8810997009
  },
  {
    "airportName": "Kiikala Airport",
    "cityName": "Kikala",
    "iata": "\\N",
    "latitude": 60.4625015259,
    "longitude": 23.6525001526
  },
  {
    "airportName": "Immola Airport",
    "cityName": "Immola",
    "iata": "\\N",
    "latitude": 61.24919891357422,
    "longitude": 28.90369987487793
  },
  {
    "airportName": "Kitee Airport",
    "cityName": "Kitee",
    "iata": "KTQ",
    "latitude": 62.1661,
    "longitude": 30.073601
  },
  {
    "airportName": "Ivalo Airport",
    "cityName": "Ivalo",
    "iata": "IVL",
    "latitude": 68.607299804688,
    "longitude": 27.405300140381
  },
  {
    "airportName": "Joensuu Airport",
    "cityName": "Joensuu",
    "iata": "JOE",
    "latitude": 62.662899017334,
    "longitude": 29.607500076294
  },
  {
    "airportName": "Jyvaskyla Airport",
    "cityName": "Jyvaskyla",
    "iata": "JYV",
    "latitude": 62.399501800537,
    "longitude": 25.678300857544
  },
  {
    "airportName": "Kauhava Airport",
    "cityName": "Kauhava",
    "iata": "KAU",
    "latitude": 63.127102,
    "longitude": 23.051399
  },
  {
    "airportName": "Kemi-Tornio Airport",
    "cityName": "Kemi",
    "iata": "KEM",
    "latitude": 65.778701782227,
    "longitude": 24.582099914551
  },
  {
    "airportName": "Kajaani Airport",
    "cityName": "Kajaani",
    "iata": "KAJ",
    "latitude": 64.285499572754,
    "longitude": 27.692399978638
  },
  {
    "airportName": "Kauhajoki Airport",
    "cityName": "Kauhajoki",
    "iata": "KHJ",
    "latitude": 62.4625015259,
    "longitude": 22.3931007385
  },
  {
    "airportName": "Kokkola-Pietarsaari Airport",
    "cityName": "Kruunupyy",
    "iata": "KOK",
    "latitude": 63.721199035645,
    "longitude": 23.143100738525
  },
  {
    "airportName": "Kemijarvi Airport",
    "cityName": "Kemijarvi",
    "iata": "\\N",
    "latitude": 66.712898,
    "longitude": 27.156799
  },
  {
    "airportName": "Kuusamo Airport",
    "cityName": "Kuusamo",
    "iata": "KAO",
    "latitude": 65.987602233887,
    "longitude": 29.239400863647
  },
  {
    "airportName": "Kittilä Airport",
    "cityName": "Kittila",
    "iata": "KTT",
    "latitude": 67.700996398926,
    "longitude": 24.846799850464
  },
  {
    "airportName": "Kuopio Airport",
    "cityName": "Kuopio",
    "iata": "KUO",
    "latitude": 63.007099151611,
    "longitude": 27.797800064087
  },
  {
    "airportName": "Lahti Vesivehmaa Airport",
    "cityName": "Vesivehmaa",
    "iata": "QLF",
    "latitude": 61.144199,
    "longitude": 25.693501
  },
  {
    "airportName": "Lappeenranta Airport",
    "cityName": "Lappeenranta",
    "iata": "LPP",
    "latitude": 61.044601,
    "longitude": 28.144743
  },
  {
    "airportName": "Mariehamn Airport",
    "cityName": "Mariehamn",
    "iata": "MHQ",
    "latitude": 60.122200012207,
    "longitude": 19.898199081421
  },
  {
    "airportName": "Menkijarvi Airport",
    "cityName": "Menkijarvi",
    "iata": "\\N",
    "latitude": 62.94670104980469,
    "longitude": 23.51889991760254
  },
  {
    "airportName": "Mikkeli Airport",
    "cityName": "Mikkeli",
    "iata": "MIK",
    "latitude": 61.6866,
    "longitude": 27.201799
  },
  {
    "airportName": "Nummela Airport",
    "cityName": "Nummela",
    "iata": "\\N",
    "latitude": 60.333900451699996,
    "longitude": 24.2964000702
  },
  {
    "airportName": "Oulu Airport",
    "cityName": "Oulu",
    "iata": "OUL",
    "latitude": 64.930099487305,
    "longitude": 25.354600906372
  },
  {
    "airportName": "Piikajarvi Airport",
    "cityName": "Piikajarvi",
    "iata": "\\N",
    "latitude": 61.245601654052734,
    "longitude": 22.19339942932129
  },
  {
    "airportName": "Pori Airport",
    "cityName": "Pori",
    "iata": "POR",
    "latitude": 61.461700439453,
    "longitude": 21.799999237061
  },
  {
    "airportName": "Pudasjärvi Airport",
    "cityName": "Pudasjarvi",
    "iata": "\\N",
    "latitude": 65.4021987915,
    "longitude": 26.946899414100002
  },
  {
    "airportName": "Pyhäsalmi Airport",
    "cityName": "Pyhasalmi",
    "iata": "\\N",
    "latitude": 63.7318992615,
    "longitude": 25.926300048799998
  },
  {
    "airportName": "Raahe Pattijoki Airport",
    "cityName": "Pattijoki",
    "iata": "\\N",
    "latitude": 64.6881027222,
    "longitude": 24.6958007812
  },
  {
    "airportName": "Rantasalmi Airport",
    "cityName": "Rantasalmi",
    "iata": "\\N",
    "latitude": 62.0654983521,
    "longitude": 28.3565006256
  },
  {
    "airportName": "Rovaniemi Airport",
    "cityName": "Rovaniemi",
    "iata": "RVN",
    "latitude": 66.564796447754,
    "longitude": 25.830400466919
  },
  {
    "airportName": "Rayskala Airport",
    "cityName": "Rayskala",
    "iata": "\\N",
    "latitude": 60.74470138549805,
    "longitude": 24.107799530029297
  },
  {
    "airportName": "Savonlinna Airport",
    "cityName": "Savonlinna",
    "iata": "SVL",
    "latitude": 61.943099975586,
    "longitude": 28.945100784302
  },
  {
    "airportName": "Selanpaa Airport",
    "cityName": "Selanpaa",
    "iata": "\\N",
    "latitude": 61.062400817871094,
    "longitude": 26.798900604248047
  },
  {
    "airportName": "Sodankyla Airport",
    "cityName": "Sodankyla",
    "iata": "SOT",
    "latitude": 67.3949966431,
    "longitude": 26.6191005707
  },
  {
    "airportName": "Tampere-Pirkkala Airport",
    "cityName": "Tampere",
    "iata": "TMP",
    "latitude": 61.414100646973,
    "longitude": 23.604400634766
  },
  {
    "airportName": "Teisko Airport",
    "cityName": "Teisko",
    "iata": "\\N",
    "latitude": 61.7733,
    "longitude": 24.027
  },
  {
    "airportName": "Turku Airport",
    "cityName": "Turku",
    "iata": "TKU",
    "latitude": 60.514099121094,
    "longitude": 22.262800216675
  },
  {
    "airportName": "Utti Air Base",
    "cityName": "Utti",
    "iata": "UTI",
    "latitude": 60.89640045166,
    "longitude": 26.938400268555
  },
  {
    "airportName": "Vaasa Airport",
    "cityName": "Vaasa",
    "iata": "VAA",
    "latitude": 63.050701141357,
    "longitude": 21.762199401855
  },
  {
    "airportName": "Varkaus Airport",
    "cityName": "Varkaus",
    "iata": "VRK",
    "latitude": 62.171100616455,
    "longitude": 27.868600845337
  },
  {
    "airportName": "Ylivieska Airfield",
    "cityName": "Ylivieska-raudaskyla",
    "iata": "YLI",
    "latitude": 64.0547222,
    "longitude": 24.7252778
  },
  {
    "airportName": "Belfast International Airport",
    "cityName": "Belfast",
    "iata": "BFS",
    "latitude": 54.6575012207,
    "longitude": -6.2158298492399995
  },
  {
    "airportName": "St Angelo Airport",
    "cityName": "Enniskillen",
    "iata": "ENK",
    "latitude": 54.39889907836914,
    "longitude": -7.651669979095459
  },
  {
    "airportName": "George Best Belfast City Airport",
    "cityName": "Belfast",
    "iata": "BHD",
    "latitude": 54.618099212646484,
    "longitude": -5.872499942779541
  },
  {
    "airportName": "City of Derry Airport",
    "cityName": "Londonderry",
    "iata": "LDY",
    "latitude": 55.04280090332031,
    "longitude": -7.161109924316406
  },
  {
    "airportName": "Birmingham International Airport",
    "cityName": "Birmingham",
    "iata": "BHX",
    "latitude": 52.453899383499994,
    "longitude": -1.74802994728
  },
  {
    "airportName": "Coventry Airport",
    "cityName": "Coventry",
    "iata": "CVT",
    "latitude": 52.3697013855,
    "longitude": -1.4797199964499999
  },
  {
    "airportName": "Leicester Airport",
    "cityName": "Leicester",
    "iata": "\\N",
    "latitude": 52.6077995300293,
    "longitude": -1.03193998336792
  },
  {
    "airportName": "Gloucestershire Airport",
    "cityName": "Golouchestershire",
    "iata": "GLO",
    "latitude": 51.89419937133789,
    "longitude": -2.167220115661621
  },
  {
    "airportName": "Wolverhampton Halfpenny Green Airport",
    "cityName": "Halfpenny Green",
    "iata": "\\N",
    "latitude": 52.51750183105469,
    "longitude": -2.2594399452209473
  },
  {
    "airportName": "Cotswold Airport",
    "cityName": "Pailton",
    "iata": "GBA",
    "latitude": 51.668095,
    "longitude": -2.05694
  },
  {
    "airportName": "Turweston Airport",
    "cityName": "Turweston",
    "iata": "\\N",
    "latitude": 52.0407981873,
    "longitude": -1.09555995464
  },
  {
    "airportName": "Wellesbourne Mountford Airport",
    "cityName": "Wellesbourne",
    "iata": "\\N",
    "latitude": 52.19219970703125,
    "longitude": -1.6144399642944336
  },
  {
    "airportName": "Manchester Airport",
    "cityName": "Manchester",
    "iata": "MAN",
    "latitude": 53.35369873046875,
    "longitude": -2.2749500274658203
  },
  {
    "airportName": "Manchester Woodford Airport",
    "cityName": "Woodfort",
    "iata": "\\N",
    "latitude": 53.3381,
    "longitude": -2.14889
  },
  {
    "airportName": "Royal Marines Base Chivenor Airport",
    "cityName": "Chivenor",
    "iata": "\\N",
    "latitude": 51.08720016479492,
    "longitude": -4.1503400802612305
  },
  {
    "airportName": "Newquay Cornwall Airport",
    "cityName": "Newquai",
    "iata": "NQY",
    "latitude": 50.44060134887695,
    "longitude": -4.995409965515137
  },
  {
    "airportName": "RAF Lyneham",
    "cityName": "Lyneham",
    "iata": "LYE",
    "latitude": 51.5051,
    "longitude": -1.99343
  },
  {
    "airportName": "MoD Boscombe Down Airport",
    "cityName": "Boscombe Down",
    "iata": "\\N",
    "latitude": 51.152198791503906,
    "longitude": -1.7474100589752197
  },
  {
    "airportName": "RNAS Culdrose",
    "cityName": "Culdrose",
    "iata": "\\N",
    "latitude": 50.08610153198242,
    "longitude": -5.255710124969482
  },
  {
    "airportName": "MoD St. Athan",
    "cityName": "St. Athan",
    "iata": "\\N",
    "latitude": 51.4048,
    "longitude": -3.43575
  },
  {
    "airportName": "RNAS Yeovilton",
    "cityName": "Yeovilton",
    "iata": "YEO",
    "latitude": 51.0093994140625,
    "longitude": -2.638819932937622
  },
  {
    "airportName": "Haverfordwest Airport",
    "cityName": "Haverfordwest",
    "iata": "HAW",
    "latitude": 51.833099365234375,
    "longitude": -4.9611101150512695
  },
  {
    "airportName": "Cardiff International Airport",
    "cityName": "Cardiff",
    "iata": "CWL",
    "latitude": 51.39670181274414,
    "longitude": -3.343329906463623
  },
  {
    "airportName": "Swansea Airport",
    "cityName": "Swansea",
    "iata": "SWS",
    "latitude": 51.60530090332031,
    "longitude": -4.0678300857543945
  },
  {
    "airportName": "Bristol Airport",
    "cityName": "Bristol",
    "iata": "BRS",
    "latitude": 51.382702,
    "longitude": -2.71909
  },
  {
    "airportName": "Liverpool John Lennon Airport",
    "cityName": "Liverpool",
    "iata": "LPL",
    "latitude": 53.33359909057617,
    "longitude": -2.849720001220703
  },
  {
    "airportName": "London Luton Airport",
    "cityName": "London",
    "iata": "LTN",
    "latitude": 51.874698638916016,
    "longitude": -0.36833301186561584
  },
  {
    "airportName": "Plymouth City Airport",
    "cityName": "Plymouth",
    "iata": "PLH",
    "latitude": 50.422798,
    "longitude": -4.10583
  },
  {
    "airportName": "Bournemouth Airport",
    "cityName": "Bournemouth",
    "iata": "BOH",
    "latitude": 50.779998779296875,
    "longitude": -1.8424999713897705
  },
  {
    "airportName": "Southampton Airport",
    "cityName": "Southampton",
    "iata": "SOU",
    "latitude": 50.95029830932617,
    "longitude": -1.3567999601364136
  },
  {
    "airportName": "Lasham Airport",
    "cityName": "Lasham",
    "iata": "QLA",
    "latitude": 51.187198638916016,
    "longitude": -1.0334999561309814
  },
  {
    "airportName": "Alderney Airport",
    "cityName": "Alderney",
    "iata": "ACI",
    "latitude": 49.706104,
    "longitude": -2.21472
  },
  {
    "airportName": "Guernsey Airport",
    "cityName": "Guernsey",
    "iata": "GCI",
    "latitude": 49.435001373291016,
    "longitude": -2.6019699573516846
  },
  {
    "airportName": "Jersey Airport",
    "cityName": "Jersey",
    "iata": "JER",
    "latitude": 49.20790100097656,
    "longitude": -2.195509910583496
  },
  {
    "airportName": "Shoreham Airport",
    "cityName": "Shoreham By Sea",
    "iata": "ESH",
    "latitude": 50.835602,
    "longitude": -0.297222
  },
  {
    "airportName": "London Biggin Hill Airport",
    "cityName": "Biggin Hill",
    "iata": "BQH",
    "latitude": 51.33079910279999,
    "longitude": 0.0324999988079
  },
  {
    "airportName": "London Gatwick Airport",
    "cityName": "London",
    "iata": "LGW",
    "latitude": 51.148102,
    "longitude": -0.190278
  },
  {
    "airportName": "London City Airport",
    "cityName": "London",
    "iata": "LCY",
    "latitude": 51.505299,
    "longitude": 0.055278
  },
  {
    "airportName": "Farnborough Airport",
    "cityName": "Farnborough",
    "iata": "FAB",
    "latitude": 51.2757987976,
    "longitude": -0.776332974434
  },
  {
    "airportName": "Chalgrove Airport",
    "cityName": "Chalsgrove",
    "iata": "\\N",
    "latitude": 51.67610168457031,
    "longitude": -1.0808299779891968
  },
  {
    "airportName": "Blackbushe Airport",
    "cityName": "Blackbushe",
    "iata": "BBS",
    "latitude": 51.32389831542969,
    "longitude": -0.8475000262260437
  },
  {
    "airportName": "London Heathrow Airport",
    "cityName": "London",
    "iata": "LHR",
    "latitude": 51.4706,
    "longitude": -0.461941
  },
  {
    "airportName": "Southend Airport",
    "cityName": "Southend",
    "iata": "SEN",
    "latitude": 51.5713996887207,
    "longitude": 0.6955559849739075
  },
  {
    "airportName": "Lydd Airport",
    "cityName": "Lydd",
    "iata": "LYX",
    "latitude": 50.95610046386719,
    "longitude": 0.9391670227050781
  },
  {
    "airportName": "Kent International Airport",
    "cityName": "Manston",
    "iata": "MSE",
    "latitude": 51.342201,
    "longitude": 1.34611
  },
  {
    "airportName": "Brough Airport",
    "cityName": "Brough",
    "iata": "\\N",
    "latitude": 53.7197,
    "longitude": -0.566333
  },
  {
    "airportName": "Carlisle Airport",
    "cityName": "Carlisle",
    "iata": "CAX",
    "latitude": 54.9375,
    "longitude": -2.8091700077056885
  },
  {
    "airportName": "Retford Gamston Airport",
    "cityName": "Repton",
    "iata": "\\N",
    "latitude": 53.280601501464844,
    "longitude": -0.9513890147209167
  },
  {
    "airportName": "Blackpool International Airport",
    "cityName": "Blackpool",
    "iata": "BLK",
    "latitude": 53.77170181274414,
    "longitude": -3.0286099910736084
  },
  {
    "airportName": "Humberside Airport",
    "cityName": "Humberside",
    "iata": "HUY",
    "latitude": 53.57440185546875,
    "longitude": -0.350832998752594
  },
  {
    "airportName": "Barrow Walney Island Airport",
    "cityName": "Barrow Island",
    "iata": "BWF",
    "latitude": 54.1286111,
    "longitude": -3.2675
  },
  {
    "airportName": "Leeds Bradford Airport",
    "cityName": "Leeds",
    "iata": "LBA",
    "latitude": 53.86589813232422,
    "longitude": -1.6605700254440308
  },
  {
    "airportName": "Warton Airport",
    "cityName": "Warton",
    "iata": "WRT",
    "latitude": 53.745098,
    "longitude": -2.88306
  },
  {
    "airportName": "Hawarden Airport",
    "cityName": "Hawarden",
    "iata": "CEG",
    "latitude": 53.1781005859375,
    "longitude": -2.9777801036834717
  },
  {
    "airportName": "Isle of Man Airport",
    "cityName": "Isle Of Man",
    "iata": "IOM",
    "latitude": 54.08330154418945,
    "longitude": -4.623889923095703
  },
  {
    "airportName": "Newcastle Airport",
    "cityName": "Newcastle",
    "iata": "NCL",
    "latitude": 55.037498474121094,
    "longitude": -1.6916699409484863
  },
  {
    "airportName": "Durham Tees Valley Airport",
    "cityName": "Teesside",
    "iata": "MME",
    "latitude": 54.50920104980469,
    "longitude": -1.4294099807739258
  },
  {
    "airportName": "East Midlands Airport",
    "cityName": "East Midlands",
    "iata": "EMA",
    "latitude": 52.8311004639,
    "longitude": -1.32806003094
  },
  {
    "airportName": "Llanbedr Airport",
    "cityName": "Llanbedr",
    "iata": "\\N",
    "latitude": 52.811698913574,
    "longitude": -4.1235799789429
  },
  {
    "airportName": "RAF Ternhill",
    "cityName": "Ternhill",
    "iata": "\\N",
    "latitude": 52.87120056152344,
    "longitude": -2.533560037612915
  },
  {
    "airportName": "RAF Shawbury",
    "cityName": "Shawbury",
    "iata": "\\N",
    "latitude": 52.79819869995117,
    "longitude": -2.6680400371551514
  },
  {
    "airportName": "RAF Woodvale",
    "cityName": "Woodvale",
    "iata": "\\N",
    "latitude": 53.5816,
    "longitude": -3.05552
  },
  {
    "airportName": "Kirkwall Airport",
    "cityName": "Kirkwall",
    "iata": "KOI",
    "latitude": 58.957801818847656,
    "longitude": -2.9049999713897705
  },
  {
    "airportName": "Sumburgh Airport",
    "cityName": "Sumburgh",
    "iata": "LSI",
    "latitude": 59.87889862060547,
    "longitude": -1.2955600023269653
  },
  {
    "airportName": "Wick Airport",
    "cityName": "Wick",
    "iata": "WIC",
    "latitude": 58.458900451660156,
    "longitude": -3.09306001663208
  },
  {
    "airportName": "Aberdeen Dyce Airport",
    "cityName": "Aberdeen",
    "iata": "ABZ",
    "latitude": 57.201900482177734,
    "longitude": -2.197779893875122
  },
  {
    "airportName": "Inverness Airport",
    "cityName": "Inverness",
    "iata": "INV",
    "latitude": 57.54249954223633,
    "longitude": -4.047500133514404
  },
  {
    "airportName": "Glasgow International Airport",
    "cityName": "Glasgow",
    "iata": "GLA",
    "latitude": 55.8718986511,
    "longitude": -4.43306016922
  },
  {
    "airportName": "Edinburgh Airport",
    "cityName": "Edinburgh",
    "iata": "EDI",
    "latitude": 55.95000076293945,
    "longitude": -3.372499942779541
  },
  {
    "airportName": "Islay Airport",
    "cityName": "Islay",
    "iata": "ILY",
    "latitude": 55.68190002441406,
    "longitude": -6.256669998168945
  },
  {
    "airportName": "Glasgow Prestwick Airport",
    "cityName": "Prestwick",
    "iata": "PIK",
    "latitude": 55.5093994140625,
    "longitude": -4.586669921875
  },
  {
    "airportName": "Benbecula Airport",
    "cityName": "Benbecula",
    "iata": "BEB",
    "latitude": 57.48109817504883,
    "longitude": -7.3627800941467285
  },
  {
    "airportName": "Scatsta Airport",
    "cityName": "Scatsta",
    "iata": "SCS",
    "latitude": 60.43280029296875,
    "longitude": -1.2961100339889526
  },
  {
    "airportName": "Dundee Airport",
    "cityName": "Dundee",
    "iata": "DND",
    "latitude": 56.45249938964844,
    "longitude": -3.025830030441284
  },
  {
    "airportName": "Stornoway Airport",
    "cityName": "Stornoway",
    "iata": "SYY",
    "latitude": 58.215599060058594,
    "longitude": -6.331110000610352
  },
  {
    "airportName": "Tiree Airport",
    "cityName": "Tiree",
    "iata": "TRE",
    "latitude": 56.49919891357422,
    "longitude": -6.869170188903809
  },
  {
    "airportName": "RAF Leuchars",
    "cityName": "Leuchars",
    "iata": "ADX",
    "latitude": 56.37289810180664,
    "longitude": -2.8684399127960205
  },
  {
    "airportName": "RAF Lossiemouth",
    "cityName": "Lossiemouth",
    "iata": "LMO",
    "latitude": 57.7052001953125,
    "longitude": -3.339169979095459
  },
  {
    "airportName": "Cambridge Airport",
    "cityName": "Cambridge",
    "iata": "CBG",
    "latitude": 52.205002,
    "longitude": 0.175
  },
  {
    "airportName": "Peterborough Business Airport",
    "cityName": "Peterborough",
    "iata": "\\N",
    "latitude": 52.468101501464844,
    "longitude": -0.2511110007762909
  },
  {
    "airportName": "Norwich International Airport",
    "cityName": "Norwich",
    "iata": "NWI",
    "latitude": 52.6758003235,
    "longitude": 1.28278005123
  },
  {
    "airportName": "London Stansted Airport",
    "cityName": "London",
    "iata": "STN",
    "latitude": 51.8849983215,
    "longitude": 0.234999999404
  },
  {
    "airportName": "North Weald Airport",
    "cityName": "North Weald",
    "iata": "\\N",
    "latitude": 51.721698761,
    "longitude": 0.154166996479
  },
  {
    "airportName": "Sheffield City Heliport",
    "cityName": "Fowlmere",
    "iata": "\\N",
    "latitude": 53.394299,
    "longitude": -1.38849
  },
  {
    "airportName": "Cranfield Airport",
    "cityName": "Cranfield",
    "iata": "\\N",
    "latitude": 52.0722007751,
    "longitude": -0.616666972637
  },
  {
    "airportName": "Exeter International Airport",
    "cityName": "Exeter",
    "iata": "EXT",
    "latitude": 50.73440170288086,
    "longitude": -3.4138898849487305
  },
  {
    "airportName": "Bristol Filton Airport",
    "cityName": "Bristol",
    "iata": "FZO",
    "latitude": 51.5194015503,
    "longitude": -2.59083008766
  },
  {
    "airportName": "Oxford (Kidlington) Airport",
    "cityName": "Oxford",
    "iata": "OXF",
    "latitude": 51.8368988037,
    "longitude": -1.32000005245
  },
  {
    "airportName": "RAF Benson",
    "cityName": "Benson",
    "iata": "BEX",
    "latitude": 51.616401672399995,
    "longitude": -1.09582996368
  },
  {
    "airportName": "RAF Lakenheath",
    "cityName": "Lakenheath",
    "iata": "LKZ",
    "latitude": 52.409301757799994,
    "longitude": 0.56099998951
  },
  {
    "airportName": "RAF Mildenhall",
    "cityName": "Mildenhall",
    "iata": "MHZ",
    "latitude": 52.361900329589844,
    "longitude": 0.48640599846839905
  },
  {
    "airportName": "RAF Wattisham",
    "cityName": "Wattisham",
    "iata": "\\N",
    "latitude": 52.1273002625,
    "longitude": 0.956264019012
  },
  {
    "airportName": "RAF Wyton",
    "cityName": "Wyton",
    "iata": "QUY",
    "latitude": 52.3572006226,
    "longitude": -0.107832998037
  },
  {
    "airportName": "RAF Fairford",
    "cityName": "Fairford",
    "iata": "FFD",
    "latitude": 51.6822013855,
    "longitude": -1.7900300025900002
  },
  {
    "airportName": "RAF Brize Norton",
    "cityName": "Brize Norton",
    "iata": "BZZ",
    "latitude": 51.75,
    "longitude": -1.58362
  },
  {
    "airportName": "RAF Odiham",
    "cityName": "Odiham",
    "iata": "ODH",
    "latitude": 51.2341003418,
    "longitude": -0.94282501936
  },
  {
    "airportName": "DCAE Cosford Air Base",
    "cityName": "Cosford",
    "iata": "\\N",
    "latitude": 52.639999,
    "longitude": -2.30558
  },
  {
    "airportName": "RAF Northolt",
    "cityName": "Northolt",
    "iata": "NHT",
    "latitude": 51.553001403799996,
    "longitude": -0.418166995049
  },
  {
    "airportName": "RAF Coningsby",
    "cityName": "Coningsby",
    "iata": "QCY",
    "latitude": 53.0929985046,
    "longitude": -0.166014000773
  },
  {
    "airportName": "RAF Dishforth",
    "cityName": "Dishforth",
    "iata": "\\N",
    "latitude": 54.1371994019,
    "longitude": -1.42025005817
  },
  {
    "airportName": "Leeming Airport",
    "cityName": "Leeming",
    "iata": "\\N",
    "latitude": 54.2924,
    "longitude": -1.5354
  },
  {
    "airportName": "Leeds East Airport",
    "cityName": "Church Fenton",
    "iata": "\\N",
    "latitude": 53.834301,
    "longitude": -1.1955
  },
  {
    "airportName": "RAF Honington",
    "cityName": "Honington",
    "iata": "BEQ",
    "latitude": 52.34260177612305,
    "longitude": 0.7729390263557434
  },
  {
    "airportName": "RAF Cottesmore",
    "cityName": "Cottesmore",
    "iata": "\\N",
    "latitude": 52.735699,
    "longitude": -0.648769
  },
  {
    "airportName": "RAF Scampton",
    "cityName": "Scampton",
    "iata": "SQZ",
    "latitude": 53.307800293,
    "longitude": -0.550832986832
  },
  {
    "airportName": "RAF Wittering",
    "cityName": "Wittering",
    "iata": "\\N",
    "latitude": 52.612598,
    "longitude": -0.476453
  },
  {
    "airportName": "RAF Linton-On-Ouse",
    "cityName": "Linton-on-ouse",
    "iata": "HRT",
    "latitude": 54.0489006042,
    "longitude": -1.2527500391
  },
  {
    "airportName": "RAF Waddington",
    "cityName": "Waddington",
    "iata": "WTN",
    "latitude": 53.1661987305,
    "longitude": -0.523810982704
  },
  {
    "airportName": "RAF Topcliffe",
    "cityName": "Topcliffe",
    "iata": "\\N",
    "latitude": 54.205501556399994,
    "longitude": -1.3820899725
  },
  {
    "airportName": "RAF Cranwell",
    "cityName": "Cranwell",
    "iata": "\\N",
    "latitude": 53.0303001404,
    "longitude": -0.48324200511
  },
  {
    "airportName": "RAF Barkston Heath",
    "cityName": "Barkston Heath",
    "iata": "\\N",
    "latitude": 52.962200164799995,
    "longitude": -0.561625003815
  },
  {
    "airportName": "RAF Marham",
    "cityName": "Marham",
    "iata": "KNF",
    "latitude": 52.648395,
    "longitude": 0.550692
  },
  {
    "airportName": "Mount Pleasant Airport",
    "cityName": "Mount Pleasant",
    "iata": "MPN",
    "latitude": -51.82279968261719,
    "longitude": -58.447200775146484
  },
  {
    "airportName": "Amsterdam Airport Schiphol",
    "cityName": "Amsterdam",
    "iata": "AMS",
    "latitude": 52.308601,
    "longitude": 4.76389
  },
  {
    "airportName": "Budel Airfield Kempen",
    "cityName": "Weert",
    "iata": "\\N",
    "latitude": 51.255299,
    "longitude": 5.60139
  },
  {
    "airportName": "Maastricht Aachen Airport",
    "cityName": "Maastricht",
    "iata": "MST",
    "latitude": 50.911701,
    "longitude": 5.77014
  },
  {
    "airportName": "Deelen Air Base",
    "cityName": "Deelen",
    "iata": "\\N",
    "latitude": 52.0606,
    "longitude": 5.87306
  },
  {
    "airportName": "Drachten Airport",
    "cityName": "Drachten",
    "iata": "\\N",
    "latitude": 53.1192016602,
    "longitude": 6.12972021103
  },
  {
    "airportName": "Eindhoven Airport",
    "cityName": "Eindhoven",
    "iata": "EIN",
    "latitude": 51.4500999451,
    "longitude": 5.37452983856
  },
  {
    "airportName": "Eelde Airport",
    "cityName": "Groningen",
    "iata": "GRQ",
    "latitude": 53.1197013855,
    "longitude": 6.57944011688
  },
  {
    "airportName": "Gilze Rijen Air Base",
    "cityName": "Gilze-rijen",
    "iata": "GLZ",
    "latitude": 51.56740188598633,
    "longitude": 4.931829929351807
  },
  {
    "airportName": "De Kooy Airport",
    "cityName": "De Kooy",
    "iata": "DHR",
    "latitude": 52.92340087890625,
    "longitude": 4.780620098114014
  },
  {
    "airportName": "Lelystad Airport",
    "cityName": "Lelystad",
    "iata": "LEY",
    "latitude": 52.4603,
    "longitude": 5.52722
  },
  {
    "airportName": "Leeuwarden Air Base",
    "cityName": "Leeuwarden",
    "iata": "LWR",
    "latitude": 53.228599548339844,
    "longitude": 5.760560035705566
  },
  {
    "airportName": "Rotterdam The Hague Airport",
    "cityName": "Rotterdam",
    "iata": "RTM",
    "latitude": 51.956902,
    "longitude": 4.43722
  },
  {
    "airportName": "Soesterberg Air Base",
    "cityName": "Soesterberg",
    "iata": "UTC",
    "latitude": 52.1273002625,
    "longitude": 5.27618980408
  },
  {
    "airportName": "Twente Airport",
    "cityName": "Enschede",
    "iata": "ENS",
    "latitude": 52.275833,
    "longitude": 6.889167
  },
  {
    "airportName": "Valkenburg Naval Air Base",
    "cityName": "Valkenburg",
    "iata": "LID",
    "latitude": 52.166099548300004,
    "longitude": 4.41794013977
  },
  {
    "airportName": "Woensdrecht Air Base",
    "cityName": "Woensdrecht",
    "iata": "WOE",
    "latitude": 51.4491,
    "longitude": 4.34203
  },
  {
    "airportName": "Cork Airport",
    "cityName": "Cork",
    "iata": "ORK",
    "latitude": 51.84130096435547,
    "longitude": -8.491109848022461
  },
  {
    "airportName": "Galway Airport",
    "cityName": "Galway",
    "iata": "GWY",
    "latitude": 53.300201416015625,
    "longitude": -8.941590309143066
  },
  {
    "airportName": "Dublin Airport",
    "cityName": "Dublin",
    "iata": "DUB",
    "latitude": 53.421299,
    "longitude": -6.27007
  },
  {
    "airportName": "Ireland West Knock Airport",
    "cityName": "Connaught",
    "iata": "NOC",
    "latitude": 53.910301208496094,
    "longitude": -8.818490028381348
  },
  {
    "airportName": "Kerry Airport",
    "cityName": "Kerry",
    "iata": "KIR",
    "latitude": 52.18090057373047,
    "longitude": -9.52377986907959
  },
  {
    "airportName": "Casement Air Base",
    "cityName": "Casement",
    "iata": "\\N",
    "latitude": 53.301700592,
    "longitude": -6.451330184940001
  },
  {
    "airportName": "Shannon Airport",
    "cityName": "Shannon",
    "iata": "SNN",
    "latitude": 52.702,
    "longitude": -8.92482
  },
  {
    "airportName": "Sligo Airport",
    "cityName": "Sligo",
    "iata": "SXL",
    "latitude": 54.280200958252,
    "longitude": -8.5992097854614
  },
  {
    "airportName": "Waterford Airport",
    "cityName": "Waterford",
    "iata": "WAT",
    "latitude": 52.187198638916016,
    "longitude": -7.0869598388671875
  },
  {
    "airportName": "Aarhus Airport",
    "cityName": "Aarhus",
    "iata": "AAR",
    "latitude": 56.2999992371,
    "longitude": 10.619000434899998
  },
  {
    "airportName": "Billund Airport",
    "cityName": "Billund",
    "iata": "BLL",
    "latitude": 55.7402992249,
    "longitude": 9.15178012848
  },
  {
    "airportName": "Copenhagen Kastrup Airport",
    "cityName": "Copenhagen",
    "iata": "CPH",
    "latitude": 55.617900848389,
    "longitude": 12.656000137329
  },
  {
    "airportName": "Esbjerg Airport",
    "cityName": "Esbjerg",
    "iata": "EBJ",
    "latitude": 55.525902,
    "longitude": 8.5534
  },
  {
    "airportName": "Grønholt Hillerød Airport",
    "cityName": "Gronholt",
    "iata": "\\N",
    "latitude": 55.94139862060547,
    "longitude": 12.382200241088867
  },
  {
    "airportName": "Karup Airport",
    "cityName": "Karup",
    "iata": "KRP",
    "latitude": 56.29750061035156,
    "longitude": 9.124629974365234
  },
  {
    "airportName": "Læsø Airport",
    "cityName": "Laeso",
    "iata": "BYR",
    "latitude": 57.277198791503906,
    "longitude": 11.000100135803223
  },
  {
    "airportName": "Lolland Falster Maribo Airport",
    "cityName": "Maribo",
    "iata": "MRW",
    "latitude": 54.699299,
    "longitude": 11.4401
  },
  {
    "airportName": "Odense Airport",
    "cityName": "Odense",
    "iata": "ODE",
    "latitude": 55.47669982910156,
    "longitude": 10.330900192260742
  },